<?xml version='1.0' encoding='UTF-8'?>
<kml xmlns='http://www.opengis.net/kml/2.2'>
	<Document>
		<name>Houston Pokémon GO Map: Pokéstops and Gyms</name>
		<description><![CDATA[Submit edits here: https://goo.gl/forms/hRzWcC1x0FqFPF1I2<br>Welcome to the new and improved Houston Go Map! This is still a work in progress, but new points are being added every day. Please contribute by using the form above.<br>You can open this map in Google Maps on mobile to get directions to points near you.<br><br>1. PLEASE follow all rules and regulations when playing Go! Be aware of your surroundings, don't trespass, and don't wander into areas that you don't trust or aren't familiar with, especially alone. This map is not a free pass into those areas. Do NOT attempt to go after a Pokestop or Gym if it's unsafe to do so. This map may not include points in elementary-high schools, cemeteries, funeral homes, or private property.<br>2. This map is meant to be a comprehensive guideline- with every update, Niantic adds and removes points. If you see/don't see a point that has changed after the update, please use the form above. I've done my best to keep the map accurate, but as with any crowdsourcing project in a huge metro area, inaccuracies are bound to happen. Additionally, points may be up to a few feet or yards off- feel free to submit an edit!<br><br>A * by the name means that the name of the point is uncertain. Notes in double brackets (()) are admin notes.<br><br>Special thanks to Shawn Sitton, Johnathan Kinney, Jackie Williford, and many others with their efforts to help contribute and to restore the map! :)]]></description>
		<Folder>
			<name>Pokéstops</name>
			<Placemark>
				<name>Village Manor Greenbelt Trails Entrance
</name>
				<styleUrl>#icon-959-4186F0-nodesc</styleUrl>
				<Point>
					<coordinates>-95.1839644,30.0687597,0.0</coordinates>
				</Point>
			</Placemark>
			<Placemark>
				<name>Woodland Hills West Greenbelt Entrance
</name>
				<styleUrl>#icon-959-4186F0-nodesc</styleUrl>
				<Point>
					<coordinates>-95.1751184,30.0643724,0.0</coordinates>
				</Point>
			</Placemark>
			<Placemark>
				<name>Greentree Village Park
</name>
				<styleUrl>#icon-959-4186F0-nodesc</styleUrl>
				<Point>
					<coordinates>-95.1801449,30.0633673,0.0</coordinates>
				</Point>
			</Placemark>
			<Placemark>
				<name>Falling Brook Greenbelt Trails Entrance
</name>
				<styleUrl>#icon-959-4186F0-nodesc</styleUrl>
				<Point>
					<coordinates>-95.180617,30.062267,0.0</coordinates>
				</Point>
			</Placemark>
			<Placemark>
				<name>Greenbelt Trails Entrance
</name>
				<styleUrl>#icon-959-4186F0-nodesc</styleUrl>
				<Point>
					<coordinates>-95.1787019,30.0607882,0.0</coordinates>
				</Point>
			</Placemark>
			<Placemark>
				<name>Gladehill Park
</name>
				<styleUrl>#icon-959-4186F0-nodesc</styleUrl>
				<Point>
					<coordinates>-95.1569197,30.0660461,0.0</coordinates>
				</Point>
			</Placemark>
			<Placemark>
				<name>Tiny Fountain
</name>
				<styleUrl>#icon-959-4186F0-nodesc</styleUrl>
				<Point>
					<coordinates>-95.1825858,30.0514881,0.0</coordinates>
				</Point>
			</Placemark>
			<Placemark>
				<name>Kings Crossing Fountain
</name>
				<styleUrl>#icon-959-4186F0-nodesc</styleUrl>
				<Point>
					<coordinates>-95.182296,30.0509727,0.0</coordinates>
				</Point>
			</Placemark>
			<Placemark>
				<name>Hunters Ridge Park
</name>
				<styleUrl>#icon-959-4186F0-nodesc</styleUrl>
				<Point>
					<coordinates>-95.1964903,30.0669677,0.0</coordinates>
				</Point>
			</Placemark>
			<Placemark>
				<name>North Park Bike Rack #2
</name>
				<styleUrl>#icon-959-4186F0-nodesc</styleUrl>
				<Point>
					<coordinates>-95.2129644,30.0693818,0.0</coordinates>
				</Point>
			</Placemark>
			<Placemark>
				<name>(Unknown)</name>
				<styleUrl>#icon-959-4186F0-nodesc</styleUrl>
				<Point>
					<coordinates>-95.2115858,30.0709579,0.0</coordinates>
				</Point>
			</Placemark>
			<Placemark>
				<name>Journey Church
</name>
				<styleUrl>#icon-959-4186F0-nodesc</styleUrl>
				<Point>
					<coordinates>-95.2158719,30.0698878,0.0</coordinates>
				</Point>
			</Placemark>
			<Placemark>
				<name>Palm Tree Bench
</name>
				<styleUrl>#icon-959-4186F0-nodesc</styleUrl>
				<Point>
					<coordinates>-95.2087051,30.068191,0.0</coordinates>
				</Point>
			</Placemark>
			<Placemark>
				<name>Dedicated to the Unborn
</name>
				<styleUrl>#icon-959-4186F0-nodesc</styleUrl>
				<Point>
					<coordinates>-95.2103788,30.0652894,0.0</coordinates>
				</Point>
			</Placemark>
			<Placemark>
				<name>Winnie the Pooh Cow Statue
</name>
				<styleUrl>#icon-959-4186F0-nodesc</styleUrl>
				<Point>
					<coordinates>-95.1823765,30.0475227,0.0</coordinates>
				</Point>
			</Placemark>
			<Placemark>
				<name>Kings Mill Fountain
</name>
				<styleUrl>#icon-959-4186F0-nodesc</styleUrl>
				<Point>
					<coordinates>-95.2355486,30.0657095,0.0</coordinates>
				</Point>
			</Placemark>
			<Placemark>
				<name>Family Life Church
</name>
				<styleUrl>#icon-959-4186F0-nodesc</styleUrl>
				<Point>
					<coordinates>-95.2351677,30.0707095,0.0</coordinates>
				</Point>
			</Placemark>
			<Placemark>
				<name>Family Life Cross
</name>
				<styleUrl>#icon-959-4186F0-nodesc</styleUrl>
				<Point>
					<coordinates>-95.236761,30.0706167,0.0</coordinates>
				</Point>
			</Placemark>
			<Placemark>
				<name>Comerica Bank Bald Eagle Statue
</name>
				<styleUrl>#icon-959-4186F0-nodesc</styleUrl>
				<Point>
					<coordinates>-95.2474201,30.0646696,0.0</coordinates>
				</Point>
			</Placemark>
			<Placemark>
				<name>Mills Branch Greenbelt Trails Entrance
</name>
				<styleUrl>#icon-959-4186F0-nodesc</styleUrl>
				<Point>
					<coordinates>-95.1760411,30.0750919,0.0</coordinates>
				</Point>
			</Placemark>
			<Placemark>
				<name>Kingwood Entrance Sign
</name>
				<styleUrl>#icon-959-4186F0-nodesc</styleUrl>
				<Point>
					<coordinates>-95.2490294,30.0529461,0.0</coordinates>
				</Point>
			</Placemark>
			<Placemark>
				<name>Insperity North Fountain
</name>
				<styleUrl>#icon-959-4186F0-nodesc</styleUrl>
				<Point>
					<coordinates>-95.2513897,30.0498444,0.0</coordinates>
				</Point>
			</Placemark>
			<Placemark>
				<name>(unknown)</name>
				<styleUrl>#icon-959-4186F0-nodesc</styleUrl>
				<Point>
					<coordinates>-95.3368717,29.9857728,0.0</coordinates>
				</Point>
			</Placemark>
			<Placemark>
				<name>(unknown)</name>
				<styleUrl>#icon-959-4186F0-nodesc</styleUrl>
				<Point>
					<coordinates>-95.3376469,29.985796,0.0</coordinates>
				</Point>
			</Placemark>
			<Placemark>
				<name>(unknown)</name>
				<styleUrl>#icon-959-4186F0-nodesc</styleUrl>
				<Point>
					<coordinates>-95.3380573,29.9857217,0.0</coordinates>
				</Point>
			</Placemark>
			<Placemark>
				<name>(unknown)</name>
				<styleUrl>#icon-959-4186F0-nodesc</styleUrl>
				<Point>
					<coordinates>-95.3358525,29.9854359,0.0</coordinates>
				</Point>
			</Placemark>
			<Placemark>
				<name>(unknown)</name>
				<styleUrl>#icon-959-4186F0-nodesc</styleUrl>
				<Point>
					<coordinates>-95.3352651,29.9851269,0.0</coordinates>
				</Point>
			</Placemark>
			<Placemark>
				<name>(unknown)</name>
				<styleUrl>#icon-959-4186F0-nodesc</styleUrl>
				<Point>
					<coordinates>-95.3351819,29.9847204,0.0</coordinates>
				</Point>
			</Placemark>
			<Placemark>
				<name>(unknown)</name>
				<styleUrl>#icon-959-4186F0-nodesc</styleUrl>
				<Point>
					<coordinates>-95.3354582,29.9846135,0.0</coordinates>
				</Point>
			</Placemark>
			<Placemark>
				<name>(unknown)</name>
				<styleUrl>#icon-959-4186F0-nodesc</styleUrl>
				<Point>
					<coordinates>-95.3322744,29.9845136,0.0</coordinates>
				</Point>
			</Placemark>
			<Placemark>
				<name>(unknown)</name>
				<styleUrl>#icon-959-4186F0-nodesc</styleUrl>
				<Point>
					<coordinates>-95.3333661,29.9858425,0.0</coordinates>
				</Point>
			</Placemark>
			<Placemark>
				<name>(unknown)</name>
				<styleUrl>#icon-959-4186F0-nodesc</styleUrl>
				<Point>
					<coordinates>-95.3330335,29.9856357,0.0</coordinates>
				</Point>
			</Placemark>
			<Placemark>
				<name>(unknown)</name>
				<styleUrl>#icon-959-4186F0-nodesc</styleUrl>
				<Point>
					<coordinates>-95.3341761,29.9864488,0.0</coordinates>
				</Point>
			</Placemark>
			<Placemark>
				<name>(unknown)</name>
				<styleUrl>#icon-959-4186F0-nodesc</styleUrl>
				<Point>
					<coordinates>-95.3323174,29.9866045,0.0</coordinates>
				</Point>
			</Placemark>
			<Placemark>
				<name>(unknown)</name>
				<styleUrl>#icon-959-4186F0-nodesc</styleUrl>
				<Point>
					<coordinates>-95.3338006,29.9868321,0.0</coordinates>
				</Point>
			</Placemark>
			<Placemark>
				<name>(unknown)</name>
				<styleUrl>#icon-959-4186F0-nodesc</styleUrl>
				<Point>
					<coordinates>-95.3337765,29.9872108,0.0</coordinates>
				</Point>
			</Placemark>
			<Placemark>
				<name>(unknown)</name>
				<styleUrl>#icon-959-4186F0-nodesc</styleUrl>
				<Point>
					<coordinates>-95.3329342,29.9869739,0.0</coordinates>
				</Point>
			</Placemark>
			<Placemark>
				<name>(unknown)</name>
				<styleUrl>#icon-959-4186F0-nodesc</styleUrl>
				<Point>
					<coordinates>-95.3341842,29.9875941,0.0</coordinates>
				</Point>
			</Placemark>
			<Placemark>
				<name>(unknown)</name>
				<styleUrl>#icon-959-4186F0-nodesc</styleUrl>
				<Point>
					<coordinates>-95.3347743,29.9875988,0.0</coordinates>
				</Point>
			</Placemark>
			<Placemark>
				<name>(unknown)</name>
				<styleUrl>#icon-959-4186F0-nodesc</styleUrl>
				<Point>
					<coordinates>-95.3352571,29.9877614,0.0</coordinates>
				</Point>
			</Placemark>
			<Placemark>
				<name>(unknown)</name>
				<styleUrl>#icon-959-4186F0-nodesc</styleUrl>
				<Point>
					<coordinates>-95.3360832,29.9876197,0.0</coordinates>
				</Point>
			</Placemark>
			<Placemark>
				<name>(unknown)</name>
				<styleUrl>#icon-959-4186F0-nodesc</styleUrl>
				<Point>
					<coordinates>-95.3321886,29.9878869,0.0</coordinates>
				</Point>
			</Placemark>
			<Placemark>
				<name>(unknown)</name>
				<styleUrl>#icon-959-4186F0-nodesc</styleUrl>
				<Point>
					<coordinates>-95.3329235,29.9878659,0.0</coordinates>
				</Point>
			</Placemark>
			<Placemark>
				<name>(unknown)</name>
				<styleUrl>#icon-959-4186F0-nodesc</styleUrl>
				<Point>
					<coordinates>-95.3331247,29.9879659,0.0</coordinates>
				</Point>
			</Placemark>
			<Placemark>
				<name>(unknown)</name>
				<styleUrl>#icon-959-4186F0-nodesc</styleUrl>
				<Point>
					<coordinates>-95.3335673,29.9879124,0.0</coordinates>
				</Point>
			</Placemark>
			<Placemark>
				<name>Appalachian Trail Pocket Park
</name>
				<styleUrl>#icon-959-4186F0-nodesc</styleUrl>
				<Point>
					<coordinates>-95.18206,30.0747483,0.0</coordinates>
				</Point>
			</Placemark>
			<Placemark>
				<name>Woodstream Pool
</name>
				<styleUrl>#icon-959-4186F0-nodesc</styleUrl>
				<Point>
					<coordinates>-95.1750997,30.0771019,0.0</coordinates>
				</Point>
			</Placemark>
			<Placemark>
				<name>The Church of Jesus Christ of Latter Day Saints</name>
				<styleUrl>#icon-959-4186F0-nodesc</styleUrl>
				<Point>
					<coordinates>-95.1926868,30.0670317,0.0</coordinates>
				</Point>
			</Placemark>
			<Placemark>
				<name>Bethany Fellowship Church</name>
				<styleUrl>#icon-959-4186F0-nodesc</styleUrl>
				<Point>
					<coordinates>-95.2117809,30.0701956,0.0</coordinates>
				</Point>
			</Placemark>
			<Placemark>
				<name>Darst Funeral Home</name>
				<styleUrl>#icon-959-4186F0-nodesc</styleUrl>
				<Point>
					<coordinates>-95.2271801,30.0667177,0.0</coordinates>
				</Point>
			</Placemark>
			<Placemark>
				<name>Nathaniel Center for Cultural and Biblical Education</name>
				<styleUrl>#icon-959-4186F0-nodesc</styleUrl>
				<Point>
					<coordinates>-95.226352,30.0658439,0.0</coordinates>
				</Point>
			</Placemark>
			<Placemark>
				<name>Crossway Community Church</name>
				<styleUrl>#icon-959-4186F0-nodesc</styleUrl>
				<Point>
					<coordinates>-95.2270807,30.0655097,0.0</coordinates>
				</Point>
			</Placemark>
			<Placemark>
				<name>Warren's Southern Gardens Waterfall</name>
				<styleUrl>#icon-959-4186F0-nodesc</styleUrl>
				<Point>
					<coordinates>-95.230483,30.0689021,0.0</coordinates>
				</Point>
			</Placemark>
			<Placemark>
				<name>Kings Mill Aquatic Center</name>
				<styleUrl>#icon-959-4186F0-nodesc</styleUrl>
				<Point>
					<coordinates>-95.2355901,30.0667955,0.0</coordinates>
				</Point>
			</Placemark>
			<Placemark>
				<name>Whataburger Historical Plaque</name>
				<styleUrl>#icon-959-4186F0-nodesc</styleUrl>
				<Point>
					<coordinates>-95.24339200000003,30.0683825,0.0</coordinates>
				</Point>
			</Placemark>
			<Placemark>
				<name>Montgomery County Food Bank Drop Off</name>
				<styleUrl>#icon-959-4186F0-nodesc</styleUrl>
				<Point>
					<coordinates>-95.2425269,30.0717269,0.0</coordinates>
				</Point>
			</Placemark>
			<Placemark>
				<name>Salvation Army Donation Spot</name>
				<styleUrl>#icon-959-4186F0-nodesc</styleUrl>
				<Point>
					<coordinates>-95.2436668,30.0718267,0.0</coordinates>
				</Point>
			</Placemark>
			<Placemark>
				<name>Los Cucos Fountain</name>
				<styleUrl>#icon-959-4186F0-nodesc</styleUrl>
				<Point>
					<coordinates>-95.248335,30.0618643,0.0</coordinates>
				</Point>
			</Placemark>
			<Placemark>
				<name>Faith Family Baptist Church</name>
				<styleUrl>#icon-959-4186F0-nodesc</styleUrl>
				<Point>
					<coordinates>-95.2510468,30.0608867,0.0</coordinates>
				</Point>
			</Placemark>
			<Placemark>
				<name>Discovery Swirly Statue</name>
				<styleUrl>#icon-959-4186F0-nodesc</styleUrl>
				<Point>
					<coordinates>-95.2465296,30.0592147,0.0</coordinates>
				</Point>
			</Placemark>
			<Placemark>
				<name>Paramount of Kingwood</name>
				<styleUrl>#icon-959-4186F0-nodesc</styleUrl>
				<Point>
					<coordinates>-95.2524366,30.0587922,0.0</coordinates>
				</Point>
			</Placemark>
			<Placemark>
				<name>Water Wheel</name>
				<description><![CDATA[Inside Asian City]]></description>
				<styleUrl>#icon-959-4186F0</styleUrl>
				<Point>
					<coordinates>-95.2672353,30.0090605,0.0</coordinates>
				</Point>
			</Placemark>
			<Placemark>
				<name>East End Park</name>
				<styleUrl>#icon-959-4186F0-nodesc</styleUrl>
				<Point>
					<coordinates>-95.1528185,30.0658025,0.0</coordinates>
				</Point>
			</Placemark>
			<Placemark>
				<name>Kingwood Christian Church</name>
				<styleUrl>#icon-959-4186F0-nodesc</styleUrl>
				<Point>
					<coordinates>-95.1869266,30.0632663,0.0</coordinates>
				</Point>
			</Placemark>
			<Placemark>
				<name>Salvation Army Drop Off</name>
				<description><![CDATA[Inside Kroger]]></description>
				<styleUrl>#icon-959-4186F0</styleUrl>
				<Point>
					<coordinates>-95.1870076,30.0669294,0.0</coordinates>
				</Point>
			</Placemark>
			<Placemark>
				<name>Houston Food Bank Drop Off
</name>
				<description><![CDATA[Inside Kroger]]></description>
				<styleUrl>#icon-959-4186F0</styleUrl>
				<Point>
					<coordinates>-95.1875065,30.0668922,0.0</coordinates>
				</Point>
			</Placemark>
			<Placemark>
				<name>US Post Office</name>
				<styleUrl>#icon-959-4186F0-nodesc</styleUrl>
				<Point>
					<coordinates>-95.1874245,30.0561016,0.0</coordinates>
				</Point>
			</Placemark>
			<Placemark>
				<name>Houston Food Bank Drop Spot
</name>
				<description><![CDATA[Inside Randalls, towards middle of the store]]></description>
				<styleUrl>#icon-959-4186F0</styleUrl>
				<Point>
					<coordinates>-95.1820155,30.0488302,0.0</coordinates>
				</Point>
			</Placemark>
			<Placemark>
				<name>Salvation Army Drop Off
</name>
				<description><![CDATA[Inside Randalls]]></description>
				<styleUrl>#icon-959-4186F0</styleUrl>
				<Point>
					<coordinates>-95.1817097,30.0490391,0.0</coordinates>
				</Point>
			</Placemark>
			<Placemark>
				<name>Town Center Park</name>
				<styleUrl>#icon-959-4186F0-nodesc</styleUrl>
				<Point>
					<coordinates>-95.1848379,30.0470787,0.0</coordinates>
				</Point>
			</Placemark>
			<Placemark>
				<name>Kingwood Library</name>
				<styleUrl>#icon-959-4186F0-nodesc</styleUrl>
				<Point>
					<coordinates>-95.181832,30.0419851,0.0</coordinates>
				</Point>
			</Placemark>
			<Placemark>
				<name>Taco Bell Founding Photo
</name>
				<description><![CDATA[Taco Bell]]></description>
				<styleUrl>#icon-959-4186F0</styleUrl>
				<Point>
					<coordinates>-95.2476082,29.9355566,0.0</coordinates>
				</Point>
			</Placemark>
			<Placemark>
				<name>US Post Office</name>
				<styleUrl>#icon-959-4186F0-nodesc</styleUrl>
				<Point>
					<coordinates>-95.1377328,30.5814302,0.0</coordinates>
				</Point>
			</Placemark>
			<Placemark>
				<name>Timberlake Timber Ridge Park
</name>
				<styleUrl>#icon-959-4186F0-nodesc</styleUrl>
				<Point>
					<coordinates>-95.4931334,30.1392598,0.0</coordinates>
				</Point>
			</Placemark>
			<Placemark>
				<name>Frostwood Elementary School Park
</name>
				<styleUrl>#icon-959-4186F0-nodesc</styleUrl>
				<Point>
					<coordinates>-95.54385200000002,29.765528,0.0</coordinates>
				</Point>
			</Placemark>
			<Placemark>
				<name>The Lake
</name>
				<styleUrl>#icon-959-4186F0-nodesc</styleUrl>
				<Point>
					<coordinates>-95.9623062,29.7691292,0.0</coordinates>
				</Point>
			</Placemark>
			<Placemark>
				<name>Venue at Richmond Apartment</name>
				<styleUrl>#icon-959-4186F0-nodesc</styleUrl>
				<Point>
					<coordinates>-95.69608599999998,29.5623247,0.0</coordinates>
				</Point>
			</Placemark>
			<Placemark>
				<name>Bendwood Park-Attack Jeep
</name>
				<styleUrl>#icon-959-4186F0-nodesc</styleUrl>
				<Point>
					<coordinates>-95.5576909,29.776445,0.0</coordinates>
				</Point>
			</Placemark>
			<Placemark>
				<name>Bendwood Park</name>
				<styleUrl>#icon-959-4186F0-nodesc</styleUrl>
				<Point>
					<coordinates>-95.5573905,29.7758792,0.0</coordinates>
				</Point>
			</Placemark>
			<Placemark>
				<name>RoofTec</name>
				<styleUrl>#icon-959-4186F0-nodesc</styleUrl>
				<Point>
					<coordinates>-95.5644165,29.95472909999999,0.0</coordinates>
				</Point>
			</Placemark>
			<Placemark>
				<name>MAMAK Malaysian Restaurant</name>
				<styleUrl>#icon-959-4186F0-nodesc</styleUrl>
				<Point>
					<coordinates>-95.5533317,29.7031541,0.0</coordinates>
				</Point>
			</Placemark>
			<Placemark>
				<name>Church of the Transfiguration</name>
				<styleUrl>#icon-959-4186F0-nodesc</styleUrl>
				<Point>
					<coordinates>-95.4849603,29.8783527,0.0</coordinates>
				</Point>
			</Placemark>
			<Placemark>
				<name>Crain Park</name>
				<styleUrl>#icon-959-4186F0-nodesc</styleUrl>
				<Point>
					<coordinates>-95.54433840000002,29.69596,0.0</coordinates>
				</Point>
			</Placemark>
			<Placemark>
				<name>SBMSA Attingham East Pavilion</name>
				<styleUrl>#icon-959-4186F0-nodesc</styleUrl>
				<Point>
					<coordinates>-95.55273599999998,29.7807,0.0</coordinates>
				</Point>
			</Placemark>
			<Placemark>
				<name>Tallowood Baptist Church</name>
				<styleUrl>#icon-959-4186F0-nodesc</styleUrl>
				<Point>
					<coordinates>-95.5522421,29.7747701,0.0</coordinates>
				</Point>
			</Placemark>
			<Placemark>
				<name>Holy Spirit Episcopal Church</name>
				<styleUrl>#icon-959-4186F0-nodesc</styleUrl>
				<Point>
					<coordinates>-95.5528902,29.7734754,0.0</coordinates>
				</Point>
			</Placemark>
			<Placemark>
				<name>Colony Fountain
</name>
				<styleUrl>#icon-959-4186F0-nodesc</styleUrl>
				<Point>
					<coordinates>-95.5581982,29.7733854,0.0</coordinates>
				</Point>
			</Placemark>
			<Placemark>
				<name>String Phone Statue
</name>
				<styleUrl>#icon-959-4186F0-nodesc</styleUrl>
				<Point>
					<coordinates>-95.5592014,29.773482,0.0</coordinates>
				</Point>
			</Placemark>
			<Placemark>
				<name>Splashpad at Town and Country
</name>
				<styleUrl>#icon-959-4186F0-nodesc</styleUrl>
				<Point>
					<coordinates>-95.5598089,29.7734808,0.0</coordinates>
				</Point>
			</Placemark>
			<Placemark>
				<name>Town and Country Entrance Fountain
</name>
				<styleUrl>#icon-959-4186F0-nodesc</styleUrl>
				<Point>
					<coordinates>-95.5608054,29.7732841,0.0</coordinates>
				</Point>
			</Placemark>
			<Placemark>
				<name>Umbrella Kids
</name>
				<styleUrl>#icon-959-4186F0-nodesc</styleUrl>
				<Point>
					<coordinates>-95.56052599999998,29.774072,0.0</coordinates>
				</Point>
			</Placemark>
			<Placemark>
				<name>Fountains at T&amp;C
</name>
				<styleUrl>#icon-959-4186F0-nodesc</styleUrl>
				<Point>
					<coordinates>-95.560561,29.774519,0.0</coordinates>
				</Point>
			</Placemark>
			<Placemark>
				<name>Flute Player Statue at T&amp;C
</name>
				<styleUrl>#icon-959-4186F0-nodesc</styleUrl>
				<Point>
					<coordinates>-95.56053199999997,29.775615,0.0</coordinates>
				</Point>
			</Placemark>
			<Placemark>
				<name>Escalante's Statue
</name>
				<styleUrl>#icon-959-4186F0-nodesc</styleUrl>
				<Point>
					<coordinates>-95.5616222,29.7759321,0.0</coordinates>
				</Point>
			</Placemark>
			<Placemark>
				<name>Blue Wave
</name>
				<styleUrl>#icon-959-4186F0-nodesc</styleUrl>
				<Point>
					<coordinates>-95.5613512,29.7770455,0.0</coordinates>
				</Point>
			</Placemark>
			<Placemark>
				<name>Town and Country Walk Way Fountain</name>
				<styleUrl>#icon-959-4186F0-nodesc</styleUrl>
				<Point>
					<coordinates>-95.5614782,29.777744,0.0</coordinates>
				</Point>
			</Placemark>
			<Placemark>
				<name>Fountain at Pronto Cucinino</name>
				<styleUrl>#icon-959-4186F0-nodesc</styleUrl>
				<Point>
					<coordinates>-95.5609138,29.7778192,0.0</coordinates>
				</Point>
			</Placemark>
			<Placemark>
				<name>Metal Fish Sculpture
</name>
				<styleUrl>#icon-959-4186F0-nodesc</styleUrl>
				<Point>
					<coordinates>-95.56076000000002,29.778542,0.0</coordinates>
				</Point>
			</Placemark>
			<Placemark>
				<name>Citycentre Pillar Fountain</name>
				<styleUrl>#icon-959-4186F0-nodesc</styleUrl>
				<Point>
					<coordinates>-95.561127,29.779303,0.0</coordinates>
				</Point>
			</Placemark>
			<Placemark>
				<name>Citycentre</name>
				<styleUrl>#icon-959-4186F0-nodesc</styleUrl>
				<Point>
					<coordinates>-95.5607127,29.7799966,0.0</coordinates>
				</Point>
			</Placemark>
			<Placemark>
				<name>Delegard Tool Company Sign
</name>
				<styleUrl>#icon-959-4186F0-nodesc</styleUrl>
				<Point>
					<coordinates>-95.5291722,29.84343399999999,0.0</coordinates>
				</Point>
			</Placemark>
			<Placemark>
				<name>Bay Area Eye Center
</name>
				<styleUrl>#icon-959-4186F0-nodesc</styleUrl>
				<Point>
					<coordinates>-95.2446199,29.5487211,0.0</coordinates>
				</Point>
			</Placemark>
			<Placemark>
				<name>Sam Houston Monument</name>
				<styleUrl>#icon-959-4186F0-nodesc</styleUrl>
				<Point>
					<coordinates>-95.3909564,29.7215953,0.0</coordinates>
				</Point>
			</Placemark>
			<Placemark>
				<name>(unknown)</name>
				<styleUrl>#icon-959-4186F0-nodesc</styleUrl>
				<Point>
					<coordinates>-95.3902906,29.7218945,0.0</coordinates>
				</Point>
			</Placemark>
			<Placemark>
				<name>Cockrell Butterfly Center *
</name>
				<styleUrl>#icon-959-4186F0-nodesc</styleUrl>
				<Point>
					<coordinates>-95.3902826,29.7222648,0.0</coordinates>
				</Point>
			</Placemark>
			<Placemark>
				<name>(unknown)</name>
				<styleUrl>#icon-959-4186F0-nodesc</styleUrl>
				<Point>
					<coordinates>-95.3890273,29.7216476,0.0</coordinates>
				</Point>
			</Placemark>
			<Placemark>
				<name>(unknown)</name>
				<styleUrl>#icon-959-4186F0-nodesc</styleUrl>
				<Point>
					<coordinates>-95.3893169,29.721566,0.0</coordinates>
				</Point>
			</Placemark>
			<Placemark>
				<name>(unknown)</name>
				<styleUrl>#icon-959-4186F0-nodesc</styleUrl>
				<Point>
					<coordinates>-95.3892526,29.7216593,0.0</coordinates>
				</Point>
			</Placemark>
			<Placemark>
				<name>Oyster Creek Park *
</name>
				<description><![CDATA[Oyster Creek Park]]></description>
				<styleUrl>#icon-959-4186F0</styleUrl>
				<Point>
					<coordinates>-95.5923504,29.5887877,0.0</coordinates>
				</Point>
			</Placemark>
			<Placemark>
				<name>Oyster Creek Park *
</name>
				<description><![CDATA[Oyster Creek Park]]></description>
				<styleUrl>#icon-959-4186F0</styleUrl>
				<Point>
					<coordinates>-95.5920607,29.5879294,0.0</coordinates>
				</Point>
			</Placemark>
			<Placemark>
				<name>Oyster Creek Park *
</name>
				<description><![CDATA[Oyster Creek Park]]></description>
				<styleUrl>#icon-959-4186F0</styleUrl>
				<Point>
					<coordinates>-95.592337,29.5874256,0.0</coordinates>
				</Point>
			</Placemark>
			<Placemark>
				<name>Oyster Creek Park *
</name>
				<description><![CDATA[Oyster Creek Park]]></description>
				<styleUrl>#icon-959-4186F0</styleUrl>
				<Point>
					<coordinates>-95.5923397,29.5892122,0.0</coordinates>
				</Point>
			</Placemark>
			<Placemark>
				<name>Oyster Creek Park *
</name>
				<description><![CDATA[Oyster Creek Park]]></description>
				<styleUrl>#icon-959-4186F0</styleUrl>
				<Point>
					<coordinates>-95.5927528,29.5893801,0.0</coordinates>
				</Point>
			</Placemark>
			<Placemark>
				<name>Oyster Creek Park *
</name>
				<styleUrl>#icon-959-4186F0-nodesc</styleUrl>
				<Point>
					<coordinates>-95.5916047,29.5889697,0.0</coordinates>
				</Point>
			</Placemark>
			<Placemark>
				<name>Oyster Creek Park *
</name>
				<styleUrl>#icon-959-4186F0-nodesc</styleUrl>
				<Point>
					<coordinates>-95.5925703,29.5895761,0.0</coordinates>
				</Point>
			</Placemark>
			<Placemark>
				<name>Oyster Creek Park *
</name>
				<styleUrl>#icon-959-4186F0-nodesc</styleUrl>
				<Point>
					<coordinates>-95.5926079,29.5897953,0.0</coordinates>
				</Point>
			</Placemark>
			<Placemark>
				<name>Bayland Park *
</name>
				<styleUrl>#icon-959-4186F0-nodesc</styleUrl>
				<Point>
					<coordinates>-95.4960655,29.6940511,0.0</coordinates>
				</Point>
			</Placemark>
			<Placemark>
				<name>Bayland Park *
</name>
				<styleUrl>#icon-959-4186F0-nodesc</styleUrl>
				<Point>
					<coordinates>-95.4965859,29.6939765,0.0</coordinates>
				</Point>
			</Placemark>
			<Placemark>
				<name>Bayland Park *
</name>
				<styleUrl>#icon-959-4186F0-nodesc</styleUrl>
				<Point>
					<coordinates>-95.4964786,29.6934663,0.0</coordinates>
				</Point>
			</Placemark>
			<Placemark>
				<name>Bayland Park *
</name>
				<styleUrl>#icon-959-4186F0-nodesc</styleUrl>
				<Point>
					<coordinates>-95.4978411,29.6937016,0.0</coordinates>
				</Point>
			</Placemark>
			<Placemark>
				<name>Bayland Park *
</name>
				<styleUrl>#icon-959-4186F0-nodesc</styleUrl>
				<Point>
					<coordinates>-95.4972296,29.6945218,0.0</coordinates>
				</Point>
			</Placemark>
			<Placemark>
				<name>Bayland Park *
</name>
				<styleUrl>#icon-959-4186F0-nodesc</styleUrl>
				<Point>
					<coordinates>-95.4974227,29.6947128,0.0</coordinates>
				</Point>
			</Placemark>
			<Placemark>
				<name>Bayland Park *
</name>
				<styleUrl>#icon-959-4186F0-nodesc</styleUrl>
				<Point>
					<coordinates>-95.4987558,29.6949644,0.0</coordinates>
				</Point>
			</Placemark>
			<Placemark>
				<name>Bayland Park *
</name>
				<styleUrl>#icon-959-4186F0-nodesc</styleUrl>
				<Point>
					<coordinates>-95.4989837,29.6965628,0.0</coordinates>
				</Point>
			</Placemark>
			<Placemark>
				<name>Bayland Geriatric Health Center *
</name>
				<styleUrl>#icon-959-4186F0-nodesc</styleUrl>
				<Point>
					<coordinates>-95.4961636,29.6951125,0.0</coordinates>
				</Point>
			</Placemark>
			<Placemark>
				<name>Fresno Garden
</name>
				<styleUrl>#icon-959-4186F0-nodesc</styleUrl>
				<Point>
					<coordinates>-95.46110399999998,29.51870499999999,0.0</coordinates>
				</Point>
			</Placemark>
			<Placemark>
				<name>Saint Clare of Assisi
</name>
				<description><![CDATA[St. Clare Catholic Church on El Dorado Blvd in Clear Lake. Pokestop at front entrance.]]></description>
				<styleUrl>#icon-959-4186F0</styleUrl>
				<Point>
					<coordinates>-95.1188753,29.5914682,0.0</coordinates>
				</Point>
			</Placemark>
			<Placemark>
				<name>St. Clare's Prayer Garden
</name>
				<description><![CDATA[Prayer garden with Mary statue in front of the church, between El Dorado and parking lot]]></description>
				<styleUrl>#icon-959-4186F0</styleUrl>
				<Point>
					<coordinates>-95.1186124,29.5923568,0.0</coordinates>
				</Point>
			</Placemark>
			<Placemark>
				<name>Pine Mill Ranch
</name>
				<styleUrl>#icon-959-4186F0-nodesc</styleUrl>
				<Point>
					<coordinates>-95.824095,29.73055,0.0</coordinates>
				</Point>
			</Placemark>
			<Placemark>
				<name>Cinemark 19 and XD *
</name>
				<styleUrl>#icon-959-4186F0-nodesc</styleUrl>
				<Point>
					<coordinates>-95.77459770000002,29.7868089,0.0</coordinates>
				</Point>
			</Placemark>
			<Placemark>
				<name>Saint Mathews Catholic Church</name>
				<styleUrl>#icon-959-4186F0-nodesc</styleUrl>
				<Point>
					<coordinates>-95.5075217,29.88565,0.0</coordinates>
				</Point>
			</Placemark>
			<Placemark>
				<name>Ben's Branch Bridge Southbound Plaque
</name>
				<styleUrl>#icon-959-4186F0-nodesc</styleUrl>
				<Point>
					<coordinates>-95.1794743,30.0431948,0.0</coordinates>
				</Point>
			</Placemark>
			<Placemark>
				<name>Cafe Du Bois</name>
				<styleUrl>#icon-959-4186F0-nodesc</styleUrl>
				<Point>
					<coordinates>-95.18592489999997,30.0477339,0.0</coordinates>
				</Point>
			</Placemark>
			<Placemark>
				<name>Kingwood Community Center Park
</name>
				<styleUrl>#icon-959-4186F0-nodesc</styleUrl>
				<Point>
					<coordinates>-95.1852316,30.0539405,0.0</coordinates>
				</Point>
			</Placemark>
			<Placemark>
				<name>Kingwood Time Capsule Plaque
</name>
				<styleUrl>#icon-959-4186F0-nodesc</styleUrl>
				<Point>
					<coordinates>-95.1847595,30.0539916,0.0</coordinates>
				</Point>
			</Placemark>
			<Placemark>
				<name>Dylan Duncan Skatepark</name>
				<styleUrl>#icon-959-4186F0-nodesc</styleUrl>
				<Point>
					<coordinates>-95.1875365,30.0543034,0.0</coordinates>
				</Point>
			</Placemark>
			<Placemark>
				<name>Kings Crossing Rehabilitation Therapy Fountain
</name>
				<styleUrl>#icon-959-4186F0-nodesc</styleUrl>
				<Point>
					<coordinates>-95.1886153,30.055927,0.0</coordinates>
				</Point>
			</Placemark>
			<Placemark>
				<name>Discovery Green *
</name>
				<styleUrl>#icon-959-4186F0-nodesc</styleUrl>
				<Point>
					<coordinates>-95.3598427,29.7534128,0.0</coordinates>
				</Point>
			</Placemark>
			<Placemark>
				<name>Synchronity of Color - Red
</name>
				<styleUrl>#icon-959-4186F0-nodesc</styleUrl>
				<Point>
					<coordinates>-95.3602209,29.7531147,0.0</coordinates>
				</Point>
			</Placemark>
			<Placemark>
				<name>Synchronity of Color - Blue
</name>
				<styleUrl>#icon-959-4186F0-nodesc</styleUrl>
				<Point>
					<coordinates>-95.3591132,29.7524278,0.0</coordinates>
				</Point>
			</Placemark>
			<Placemark>
				<name>George R. Brown
</name>
				<description><![CDATA[Discovery Green]]></description>
				<styleUrl>#icon-959-4186F0</styleUrl>
				<Point>
					<coordinates>-95.3600117,29.7528003,0.0</coordinates>
				</Point>
			</Placemark>
			<Placemark>
				<name>Sound Discs *
</name>
				<styleUrl>#icon-959-4186F0-nodesc</styleUrl>
				<Point>
					<coordinates>-95.3599366,29.7519201,0.0</coordinates>
				</Point>
			</Placemark>
			<Placemark>
				<name>Countryside HOA
</name>
				<description><![CDATA[Countryside Homeowners Association]]></description>
				<styleUrl>#icon-959-4186F0</styleUrl>
				<Point>
					<coordinates>-95.159014,29.4927293,0.0</coordinates>
				</Point>
			</Placemark>
			<Placemark>
				<name>Countryside Playground
</name>
				<description><![CDATA[Countryside Homeowners Association]]></description>
				<styleUrl>#icon-959-4186F0</styleUrl>
				<Point>
					<coordinates>-95.1587592,29.4931052,0.0</coordinates>
				</Point>
			</Placemark>
			<Placemark>
				<name>Forest Garden Greenbelt Trails Entrance
</name>
				<styleUrl>#icon-959-4186F0-nodesc</styleUrl>
				<Point>
					<coordinates>-95.1737022,30.0574314,0.0</coordinates>
				</Point>
			</Placemark>
			<Placemark>
				<name>Zachary's gator art
</name>
				<description><![CDATA[Zachary's Cajun Cafe]]></description>
				<styleUrl>#icon-959-4186F0</styleUrl>
				<Point>
					<coordinates>-95.2448985,30.0507496,0.0</coordinates>
				</Point>
			</Placemark>
			<Placemark>
				<name>Salvation Army Drop Off
</name>
				<styleUrl>#icon-959-4186F0-nodesc</styleUrl>
				<Point>
					<coordinates>-95.2465647,30.0496867,0.0</coordinates>
				</Point>
			</Placemark>
			<Placemark>
				<name>Houston Food Bank Donation Drop Off
</name>
				<styleUrl>#icon-959-4186F0-nodesc</styleUrl>
				<Point>
					<coordinates>-95.2461848,30.0498864,0.0</coordinates>
				</Point>
			</Placemark>
			<Placemark>
				<name>RC's Pizza
</name>
				<styleUrl>#icon-959-4186F0-nodesc</styleUrl>
				<Point>
					<coordinates>-95.2384213,30.0492133,0.0</coordinates>
				</Point>
			</Placemark>
			<Placemark>
				<name>(unknown)</name>
				<styleUrl>#icon-959-4186F0-nodesc</styleUrl>
				<Point>
					<coordinates>-95.263052,30.0895559,0.0</coordinates>
				</Point>
			</Placemark>
			<Placemark>
				<name>(unknown)</name>
				<styleUrl>#icon-959-4186F0-nodesc</styleUrl>
				<Point>
					<coordinates>-95.2588892,30.09015,0.0</coordinates>
				</Point>
			</Placemark>
			<Placemark>
				<name>(unknown)</name>
				<styleUrl>#icon-959-4186F0-nodesc</styleUrl>
				<Point>
					<coordinates>-95.2575803,30.0886833,0.0</coordinates>
				</Point>
			</Placemark>
			<Placemark>
				<name>Hofbrau Windmill</name>
				<description><![CDATA[Hofbrau Steaks]]></description>
				<styleUrl>#icon-959-4186F0</styleUrl>
				<Point>
					<coordinates>-95.2336334,30.1031177,0.0</coordinates>
				</Point>
			</Placemark>
			<Placemark>
				<name>(unknown)</name>
				<styleUrl>#icon-959-4186F0-nodesc</styleUrl>
				<Point>
					<coordinates>-95.2298301,30.1029551,0.0</coordinates>
				</Point>
			</Placemark>
			<Placemark>
				<name>Dayspring Church</name>
				<styleUrl>#icon-959-4186F0-nodesc</styleUrl>
				<Point>
					<coordinates>-95.243561,30.10496400000001,0.0</coordinates>
				</Point>
			</Placemark>
			<Placemark>
				<name>First Baptist Church of Porter</name>
				<description><![CDATA[Pokestop at entrance to parking lot]]></description>
				<styleUrl>#icon-959-4186F0</styleUrl>
				<Point>
					<coordinates>-95.2388971,30.1042775,0.0</coordinates>
				</Point>
			</Placemark>
			<Placemark>
				<name>First Baptist Church</name>
				<description><![CDATA[Pokestop at front of building]]></description>
				<styleUrl>#icon-959-4186F0</styleUrl>
				<Point>
					<coordinates>-95.2390581,30.1028087,0.0</coordinates>
				</Point>
			</Placemark>
			<Placemark>
				<name>(unknown)
</name>
				<styleUrl>#icon-959-4186F0-nodesc</styleUrl>
				<Point>
					<coordinates>-95.2487397,30.1015303,0.0</coordinates>
				</Point>
			</Placemark>
			<Placemark>
				<name>Kingwood Cove Golf Club *
</name>
				<styleUrl>#icon-959-4186F0-nodesc</styleUrl>
				<Point>
					<coordinates>-95.2449317,30.0292902,0.0</coordinates>
				</Point>
			</Placemark>
			<Placemark>
				<name>3D Games
</name>
				<description><![CDATA[Pokestop is located closer to MasterCuts, not at the actual 3D games location.]]></description>
				<styleUrl>#icon-959-4186F0</styleUrl>
				<Point>
					<coordinates>-95.2698262,30.0109298,0.0</coordinates>
				</Point>
			</Placemark>
			<Placemark>
				<name>Deerbrook Mall Mural</name>
				<description><![CDATA[Pokestop inside Deerbrook Mall Food Court]]></description>
				<styleUrl>#icon-959-4186F0</styleUrl>
				<Point>
					<coordinates>-95.2711566,30.0096896,0.0</coordinates>
				</Point>
			</Placemark>
			<Placemark>
				<name>Fountain at Joe's Crab Shack</name>
				<styleUrl>#icon-959-4186F0-nodesc</styleUrl>
				<Point>
					<coordinates>-95.2657537,30.0075511,0.0</coordinates>
				</Point>
			</Placemark>
			<Placemark>
				<name>DNA Comics</name>
				<styleUrl>#icon-959-4186F0-nodesc</styleUrl>
				<Point>
					<coordinates>-95.2659559,30.0059848,0.0</coordinates>
				</Point>
			</Placemark>
			<Placemark>
				<name>Ettin Games
</name>
				<description><![CDATA[Locally owned gaming center]]></description>
				<styleUrl>#icon-959-4186F0</styleUrl>
				<Point>
					<coordinates>-95.2636153,30.0060708,0.0</coordinates>
				</Point>
			</Placemark>
			<Placemark>
				<name>Worldwide Prayer &amp; Revival Center, Ministries
</name>
				<styleUrl>#icon-959-4186F0-nodesc</styleUrl>
				<Point>
					<coordinates>-95.260779,30.0056023,0.0</coordinates>
				</Point>
			</Placemark>
			<Placemark>
				<name>Church of Christ Sign</name>
				<description><![CDATA[Church of Christ in Humble]]></description>
				<styleUrl>#icon-959-4186F0</styleUrl>
				<Point>
					<coordinates>-95.2597756,29.9982263,0.0</coordinates>
				</Point>
			</Placemark>
			<Placemark>
				<name>Trees in Front of the Administration Building Plaque</name>
				<description><![CDATA[Charles Bender High School]]></description>
				<styleUrl>#icon-959-4186F0</styleUrl>
				<Point>
					<coordinates>-95.2603046,29.9976909,0.0</coordinates>
				</Point>
			</Placemark>
			<Placemark>
				<name>Freebirds Van
</name>
				<styleUrl>#icon-959-4186F0-nodesc</styleUrl>
				<Point>
					<coordinates>-95.2815672,30.004187,0.0</coordinates>
				</Point>
			</Placemark>
			<Placemark>
				<name></name>
				<styleUrl>#icon-959-4186F0-nodesc</styleUrl>
				<Point>
					<coordinates>-95.2829754,30.0059871,0.0</coordinates>
				</Point>
			</Placemark>
			<Placemark>
				<name></name>
				<styleUrl>#icon-959-4186F0-nodesc</styleUrl>
				<Point>
					<coordinates>-95.2941817,30.0220823,0.0</coordinates>
				</Point>
			</Placemark>
			<Placemark>
				<name>Jesse H. Jones Park &amp; Nature Center *
</name>
				<styleUrl>#icon-959-4186F0-nodesc</styleUrl>
				<Point>
					<coordinates>-95.2945567,30.0233432,0.0</coordinates>
				</Point>
			</Placemark>
			<Placemark>
				<name>Jesse H. Jones Park &amp; Nature Center *
</name>
				<styleUrl>#icon-959-4186F0-nodesc</styleUrl>
				<Point>
					<coordinates>-95.2937414,30.0235661,0.0</coordinates>
				</Point>
			</Placemark>
			<Placemark>
				<name>Swords &amp; Superheroes</name>
				<description><![CDATA[Game Haven]]></description>
				<styleUrl>#icon-959-4186F0</styleUrl>
				<Point>
					<coordinates>-95.3944801,30.062384,0.0</coordinates>
				</Point>
			</Placemark>
			<Placemark>
				<name>(unknown)</name>
				<styleUrl>#icon-959-4186F0-nodesc</styleUrl>
				<Point>
					<coordinates>-95.3711289,30.0522728,0.0</coordinates>
				</Point>
			</Placemark>
			<Placemark>
				<name></name>
				<styleUrl>#icon-959-4186F0-nodesc</styleUrl>
				<Point>
					<coordinates>-95.3693104,30.038421,0.0</coordinates>
				</Point>
			</Placemark>
			<Placemark>
				<name></name>
				<styleUrl>#icon-959-4186F0-nodesc</styleUrl>
				<Point>
					<coordinates>-95.3678941,30.037325,0.0</coordinates>
				</Point>
			</Placemark>
			<Placemark>
				<name></name>
				<styleUrl>#icon-959-4186F0-nodesc</styleUrl>
				<Point>
					<coordinates>-95.3637099,30.0381981,0.0</coordinates>
				</Point>
			</Placemark>
			<Placemark>
				<name>Foxwood Park
</name>
				<styleUrl>#icon-959-4186F0-nodesc</styleUrl>
				<Point>
					<coordinates>-95.316723,30.0145901,0.0</coordinates>
				</Point>
			</Placemark>
			<Placemark>
				<name>US Post Office</name>
				<styleUrl>#icon-959-4186F0-nodesc</styleUrl>
				<Point>
					<coordinates>-95.3153251,30.006358,0.0</coordinates>
				</Point>
			</Placemark>
			<Placemark>
				<name>IAH Fountains
</name>
				<styleUrl>#icon-959-4186F0-nodesc</styleUrl>
				<Point>
					<coordinates>-95.337435,29.9676502,0.0</coordinates>
				</Point>
			</Placemark>
			<Placemark>
				<name>HAS Art
</name>
				<description><![CDATA[Houston Airport System]]></description>
				<styleUrl>#icon-959-4186F0</styleUrl>
				<Point>
					<coordinates>-95.3346797,29.9648676,0.0</coordinates>
				</Point>
			</Placemark>
			<Placemark>
				<name>Doubletree Fountain
</name>
				<description><![CDATA[DoubleTree by Hilton Houston Intercontinental Airport]]></description>
				<styleUrl>#icon-959-4186F0</styleUrl>
				<Point>
					<coordinates>-95.3319336,29.9462451,0.0</coordinates>
				</Point>
			</Placemark>
			<Placemark>
				<name></name>
				<styleUrl>#icon-959-4186F0-nodesc</styleUrl>
				<Point>
					<coordinates>-95.3312016,29.9438907,0.0</coordinates>
				</Point>
			</Placemark>
			<Placemark>
				<name>Bill Crowley Park *
</name>
				<styleUrl>#icon-959-4186F0-nodesc</styleUrl>
				<Point>
					<coordinates>-95.3223344,29.9172062,0.0</coordinates>
				</Point>
			</Placemark>
			<Placemark>
				<name>Bill Crowley Park</name>
				<styleUrl>#icon-959-4186F0-nodesc</styleUrl>
				<Point>
					<coordinates>-95.3240296,29.9110872,0.0</coordinates>
				</Point>
			</Placemark>
			<Placemark>
				<name>Eagle Creek Fountain
</name>
				<styleUrl>#icon-959-4186F0-nodesc</styleUrl>
				<Point>
					<coordinates>-95.2452314,29.9337382,0.0</coordinates>
				</Point>
			</Placemark>
			<Placemark>
				<name>Lindsay Lyons Sports Complex</name>
				<styleUrl>#icon-959-4186F0-nodesc</styleUrl>
				<Point>
					<coordinates>-95.233814,29.9696322,0.0</coordinates>
				</Point>
			</Placemark>
			<Placemark>
				<name>El Bethel Family Life Center
</name>
				<styleUrl>#icon-959-4186F0-nodesc</styleUrl>
				<Point>
					<coordinates>-95.2278882,29.9734637,0.0</coordinates>
				</Point>
			</Placemark>
			<Placemark>
				<name>Pentecostal Church-Atascocita *
</name>
				<styleUrl>#icon-959-4186F0-nodesc</styleUrl>
				<Point>
					<coordinates>-95.220367,29.9775712,0.0</coordinates>
				</Point>
			</Placemark>
			<Placemark>
				<name>Atascosita Forest Swimming Place *
</name>
				<styleUrl>#icon-959-4186F0-nodesc</styleUrl>
				<Point>
					<coordinates>-95.212545,29.9754364,0.0</coordinates>
				</Point>
			</Placemark>
			<Placemark>
				<name>Oaks of Atascocita Sign
</name>
				<styleUrl>#icon-959-4186F0-nodesc</styleUrl>
				<Point>
					<coordinates>-95.1934916,30.0071717,0.0</coordinates>
				</Point>
			</Placemark>
			<Placemark>
				<name>Watertower</name>
				<styleUrl>#icon-959-4186F0-nodesc</styleUrl>
				<Point>
					<coordinates>-95.1874727,30.0028003,0.0</coordinates>
				</Point>
			</Placemark>
			<Placemark>
				<name>Oaks of Atascocita Pool</name>
				<styleUrl>#icon-959-4186F0-nodesc</styleUrl>
				<Point>
					<coordinates>-95.1862297,30.0028886,0.0</coordinates>
				</Point>
			</Placemark>
			<Placemark>
				<name>The Church of Jesus Christ of Latter-day Saints</name>
				<styleUrl>#icon-959-4186F0-nodesc</styleUrl>
				<Point>
					<coordinates>-95.17981299999997,30.0076817,0.0</coordinates>
				</Point>
			</Placemark>
			<Placemark>
				<name>Atascocita Presbyterian Church</name>
				<styleUrl>#icon-959-4186F0-nodesc</styleUrl>
				<Point>
					<coordinates>-95.178428,30.00645599999999,0.0</coordinates>
				</Point>
			</Placemark>
			<Placemark>
				<name>Samurai Statue
</name>
				<description><![CDATA[Kublai Khan Mongolian Stir Fry]]></description>
				<styleUrl>#icon-959-4186F0</styleUrl>
				<Point>
					<coordinates>-95.17644389999998,29.99778689999999,0.0</coordinates>
				</Point>
			</Placemark>
			<Placemark>
				<name>Firehouse Subs Atascocita Mural
</name>
				<description><![CDATA[Pokestop inside but can easily be accessed outside the store.]]></description>
				<styleUrl>#icon-959-4186F0</styleUrl>
				<Point>
					<coordinates>-95.171854,29.996895,0.0</coordinates>
				</Point>
			</Placemark>
			<Placemark>
				<name>Apostolic Life Tabernacle
</name>
				<description><![CDATA[Sign now says FREEDOM HOUSE APOSTOLIC CENTER]]></description>
				<styleUrl>#icon-959-4186F0</styleUrl>
				<Point>
					<coordinates>-95.1698935,29.9966354,0.0</coordinates>
				</Point>
			</Placemark>
			<Placemark>
				<name>Fountain of Doom
</name>
				<description><![CDATA[Ling's Buffet]]></description>
				<styleUrl>#icon-959-4186F0</styleUrl>
				<Point>
					<coordinates>-95.1775776,29.9928544,0.0</coordinates>
				</Point>
			</Placemark>
			<Placemark>
				<name>Walden Entrance
</name>
				<description><![CDATA[Walden Entrance right next to Walgreens]]></description>
				<styleUrl>#icon-959-4186F0</styleUrl>
				<Point>
					<coordinates>-95.1622224,29.9978806,0.0</coordinates>
				</Point>
			</Placemark>
			<Placemark>
				<name>Walden Entrance Sign
</name>
				<description><![CDATA[Walden Entrance Sign next to Whataburger (game location not physical location.)]]></description>
				<styleUrl>#icon-959-4186F0</styleUrl>
				<Point>
					<coordinates>-95.1607874,29.9986215,0.0</coordinates>
				</Point>
			</Placemark>
			<Placemark>
				<name>Best Western Fountain Atascocita</name>
				<description><![CDATA[Best Western Plus Atascocita Humble Inn and Suites. You have to drive to the back to reach it.]]></description>
				<styleUrl>#icon-959-4186F0</styleUrl>
				<Point>
					<coordinates>-95.1583321,29.9995164,0.0</coordinates>
				</Point>
			</Placemark>
			<Placemark>
				<name>Atascocita United Methodist Church</name>
				<styleUrl>#icon-959-4186F0-nodesc</styleUrl>
				<Point>
					<coordinates>-95.15206590000003,30.0004902,0.0</coordinates>
				</Point>
			</Placemark>
			<Placemark>
				<name>Church</name>
				<styleUrl>#icon-959-4186F0-nodesc</styleUrl>
				<Point>
					<coordinates>-95.1533496,30.0030744,0.0</coordinates>
				</Point>
			</Placemark>
			<Placemark>
				<name>Atascocita Lutheran Church</name>
				<styleUrl>#icon-959-4186F0-nodesc</styleUrl>
				<Point>
					<coordinates>-95.1543749,30.00314229999999,0.0</coordinates>
				</Point>
			</Placemark>
			<Placemark>
				<name>Atascocita Branch Library</name>
				<styleUrl>#icon-959-4186F0-nodesc</styleUrl>
				<Point>
					<coordinates>-95.15422910000001,30.0045786,0.0</coordinates>
				</Point>
			</Placemark>
			<Placemark>
				<name>Atascocita United Methodist Church</name>
				<styleUrl>#icon-959-4186F0-nodesc</styleUrl>
				<Point>
					<coordinates>-95.15437509999998,30.0041082,0.0</coordinates>
				</Point>
			</Placemark>
			<Placemark>
				<name>Atascocita A
</name>
				<styleUrl>#icon-959-4186F0-nodesc</styleUrl>
				<Point>
					<coordinates>-95.1438332,30.0093922,0.0</coordinates>
				</Point>
			</Placemark>
			<Placemark>
				<name>Lake Houston Church of Christ</name>
				<styleUrl>#icon-959-4186F0-nodesc</styleUrl>
				<Point>
					<coordinates>-95.1523566,29.9981184,0.0</coordinates>
				</Point>
			</Placemark>
			<Placemark>
				<name>Westlake Medical Fountain
</name>
				<styleUrl>#icon-959-4186F0-nodesc</styleUrl>
				<Point>
					<coordinates>-95.1604897,29.9953392,0.0</coordinates>
				</Point>
			</Placemark>
			<Placemark>
				<name>Countryside Picnic Table
</name>
				<description><![CDATA[Countryside Homeowners Association]]></description>
				<styleUrl>#icon-959-4186F0</styleUrl>
				<Point>
					<coordinates>-95.158617,29.492699,0.0</coordinates>
				</Point>
			</Placemark>
			<Placemark>
				<name>Magnolia Creek Bridge
</name>
				<styleUrl>#icon-959-4186F0-nodesc</styleUrl>
				<Point>
					<coordinates>-95.157786,29.4927947,0.0</coordinates>
				</Point>
			</Placemark>
			<Placemark>
				<name>Countryside Park Trail</name>
				<styleUrl>#icon-959-4186F0-nodesc</styleUrl>
				<Point>
					<coordinates>-95.1596689,29.4925705,0.0</coordinates>
				</Point>
			</Placemark>
			<Placemark>
				<name>West 18th Apartments</name>
				<styleUrl>#icon-959-4186F0-nodesc</styleUrl>
				<Point>
					<coordinates>-95.4469742,29.8028713,0.0</coordinates>
				</Point>
			</Placemark>
			<Placemark>
				<name>Summerbrooke Apartments</name>
				<styleUrl>#icon-959-4186F0-nodesc</styleUrl>
				<Point>
					<coordinates>-95.034178,29.536497,0.0</coordinates>
				</Point>
			</Placemark>
			<Placemark>
				<name>Sam's Boat</name>
				<styleUrl>#icon-959-4186F0-nodesc</styleUrl>
				<Point>
					<coordinates>-95.4797178,29.7320556,0.0</coordinates>
				</Point>
			</Placemark>
			<Placemark>
				<name>Walden Fountain
</name>
				<description><![CDATA[Walden on Lake Houston]]></description>
				<styleUrl>#icon-959-4186F0</styleUrl>
				<Point>
					<coordinates>-95.1477511,29.9912734,0.0</coordinates>
				</Point>
			</Placemark>
			<Placemark>
				<name>Northeast Houston Baptist Church</name>
				<styleUrl>#icon-959-4186F0-nodesc</styleUrl>
				<Point>
					<coordinates>-95.1616054,29.9828542,0.0</coordinates>
				</Point>
			</Placemark>
			<Placemark>
				<name>Woodlands Church Fountain *
</name>
				<styleUrl>#icon-959-4186F0-nodesc</styleUrl>
				<Point>
					<coordinates>-95.1649915,29.9820944,0.0</coordinates>
				</Point>
			</Placemark>
			<Placemark>
				<name>(unknown)</name>
				<styleUrl>#icon-959-4186F0-nodesc</styleUrl>
				<Point>
					<coordinates>-95.1643789,29.9801598,0.0</coordinates>
				</Point>
			</Placemark>
			<Placemark>
				<name>(unknown)</name>
				<styleUrl>#icon-959-4186F0-nodesc</styleUrl>
				<Point>
					<coordinates>-95.171932,29.9730455,0.0</coordinates>
				</Point>
			</Placemark>
			<Placemark>
				<name>Water's Edge Fountains
</name>
				<description><![CDATA[Left side as you drive in (need to turn around and park in the right lane, can't access it from your car).]]></description>
				<styleUrl>#icon-959-4186F0</styleUrl>
				<Point>
					<coordinates>-95.1679891,29.9648339,0.0</coordinates>
				</Point>
			</Placemark>
			<Placemark>
				<name>Valley Springs Clubhouse/Splash Pad Center *
</name>
				<styleUrl>#icon-959-4186F0-nodesc</styleUrl>
				<Point>
					<coordinates>-95.1827956,29.9660344,0.0</coordinates>
				</Point>
			</Placemark>
			<Placemark>
				<name>Fountains</name>
				<styleUrl>#icon-959-4186F0-nodesc</styleUrl>
				<Point>
					<coordinates>-95.1905733,29.9786031,0.0</coordinates>
				</Point>
			</Placemark>
			<Placemark>
				<name>Fountains</name>
				<styleUrl>#icon-959-4186F0-nodesc</styleUrl>
				<Point>
					<coordinates>-95.188905,29.9782825,0.0</coordinates>
				</Point>
			</Placemark>
			<Placemark>
				<name>Gazebo</name>
				<styleUrl>#icon-959-4186F0-nodesc</styleUrl>
				<Point>
					<coordinates>-95.1879448,29.9780688,0.0</coordinates>
				</Point>
			</Placemark>
			<Placemark>
				<name>Swimming Pool Sign
</name>
				<description><![CDATA[Eagle Springs Community Association Pool]]></description>
				<styleUrl>#icon-959-4186F0</styleUrl>
				<Point>
					<coordinates>-95.1879742,29.9776808,0.0</coordinates>
				</Point>
			</Placemark>
			<Placemark>
				<name>Sand Volleyball Court
</name>
				<styleUrl>#icon-959-4186F0-nodesc</styleUrl>
				<Point>
					<coordinates>-95.1884544,29.9777946,0.0</coordinates>
				</Point>
			</Placemark>
			<Placemark>
				<name>Foucault Pendulum
</name>
				<description><![CDATA[The Houston Museum of Natural Science]]></description>
				<styleUrl>#icon-959-4186F0</styleUrl>
				<Point>
					<coordinates>-95.3897896,29.7223405,0.0</coordinates>
				</Point>
			</Placemark>
			<Placemark>
				<name>Tyrannosaurus Rex
</name>
				<description><![CDATA[The Houston Museum of Natural Science]]></description>
				<styleUrl>#icon-959-4186F0</styleUrl>
				<Point>
					<coordinates>-95.3897467,29.7225828,0.0</coordinates>
				</Point>
			</Placemark>
			<Placemark>
				<name>Megalodon
</name>
				<description><![CDATA[The Houston Museum of Natural Science]]></description>
				<styleUrl>#icon-959-4186F0</styleUrl>
				<Point>
					<coordinates>-95.3894087,29.7227156,0.0</coordinates>
				</Point>
			</Placemark>
			<Placemark>
				<name>Fountain *
</name>
				<styleUrl>#icon-959-4186F0-nodesc</styleUrl>
				<Point>
					<coordinates>-95.3898856,29.7231756,0.0</coordinates>
				</Point>
			</Placemark>
			<Placemark>
				<name>Pump Station
</name>
				<styleUrl>#icon-959-4186F0-nodesc</styleUrl>
				<Point>
					<coordinates>-95.38866,29.72267,0.0</coordinates>
				</Point>
			</Placemark>
			<Placemark>
				<name>Hawkins Sculpture Walk *
</name>
				<styleUrl>#icon-959-4186F0-nodesc</styleUrl>
				<Point>
					<coordinates>-95.3882827,29.7222817,0.0</coordinates>
				</Point>
			</Placemark>
			<Placemark>
				<name>Woodland Garden *
</name>
				<styleUrl>#icon-959-4186F0-nodesc</styleUrl>
				<Point>
					<coordinates>-95.387698,29.7218461,0.0</coordinates>
				</Point>
			</Placemark>
			<Placemark>
				<name>McGovern Centennial Gardens *
</name>
				<styleUrl>#icon-959-4186F0-nodesc</styleUrl>
				<Point>
					<coordinates>-95.3878733,29.7220657,0.0</coordinates>
				</Point>
			</Placemark>
			<Placemark>
				<name>Pergola Walk *
</name>
				<styleUrl>#icon-959-4186F0-nodesc</styleUrl>
				<Point>
					<coordinates>-95.3868353,29.721297,0.0</coordinates>
				</Point>
			</Placemark>
			<Placemark>
				<name>McGovern Centennial Gardens *
</name>
				<styleUrl>#icon-959-4186F0-nodesc</styleUrl>
				<Point>
					<coordinates>-95.3869238,29.7201463,0.0</coordinates>
				</Point>
			</Placemark>
			<Placemark>
				<name>McGovern Centennial Gardens *
</name>
				<styleUrl>#icon-959-4186F0-nodesc</styleUrl>
				<Point>
					<coordinates>-95.386956,29.7201137,0.0</coordinates>
				</Point>
			</Placemark>
			<Placemark>
				<name>McGovern Centennial Gardens *
</name>
				<styleUrl>#icon-959-4186F0-nodesc</styleUrl>
				<Point>
					<coordinates>-95.3870097,29.7200974,0.0</coordinates>
				</Point>
			</Placemark>
			<Placemark>
				<name>Geode</name>
				<description><![CDATA[Miller Outdoor Theatre]]></description>
				<styleUrl>#icon-959-4186F0</styleUrl>
				<Point>
					<coordinates>-95.3883166,29.7196166,0.0</coordinates>
				</Point>
			</Placemark>
			<Placemark>
				<name>Miller Outdoor Theatre *
</name>
				<styleUrl>#icon-959-4186F0-nodesc</styleUrl>
				<Point>
					<coordinates>-95.3882577,29.7191158,0.0</coordinates>
				</Point>
			</Placemark>
			<Placemark>
				<name>Marvin Taylor Exercise Trail
</name>
				<styleUrl>#icon-959-4186F0-nodesc</styleUrl>
				<Point>
					<coordinates>-95.3848672,29.7188197,0.0</coordinates>
				</Point>
			</Placemark>
			<Placemark>
				<name>Fountain at the Esplanade
</name>
				<description><![CDATA[Esplanade]]></description>
				<styleUrl>#icon-959-4186F0</styleUrl>
				<Point>
					<coordinates>-95.381739,29.7185707,0.0</coordinates>
				</Point>
			</Placemark>
			<Placemark>
				<name>Hermann Golf Course</name>
				<styleUrl>#icon-959-4186F0-nodesc</styleUrl>
				<Point>
					<coordinates>-95.3822206,29.7143398,0.0</coordinates>
				</Point>
			</Placemark>
			<Placemark>
				<name>Aloitious Buttercup</name>
				<styleUrl>#icon-959-4186F0-nodesc</styleUrl>
				<Point>
					<coordinates>-95.1588964,29.4932382,0.0</coordinates>
				</Point>
			</Placemark>
			<Placemark>
				<name>Hermann Park Greenway
</name>
				<styleUrl>#icon-959-4186F0-nodesc</styleUrl>
				<Point>
					<coordinates>-95.3839619,29.7134235,0.0</coordinates>
				</Point>
			</Placemark>
			<Placemark>
				<name>Plaza *
</name>
				<styleUrl>#icon-959-4186F0-nodesc</styleUrl>
				<Point>
					<coordinates>-95.3909532,29.7209129,0.0</coordinates>
				</Point>
			</Placemark>
			<Placemark>
				<name>Pioneer Memorial
</name>
				<description><![CDATA[Hermann Park]]></description>
				<styleUrl>#icon-959-4186F0</styleUrl>
				<Point>
					<coordinates>-95.390921,29.7186115,0.0</coordinates>
				</Point>
			</Placemark>
			<Placemark>
				<name>Japanese Garden *
</name>
				<styleUrl>#icon-959-4186F0-nodesc</styleUrl>
				<Point>
					<coordinates>-95.3918756,29.7187676,0.0</coordinates>
				</Point>
			</Placemark>
			<Placemark>
				<name>Japanese Garden *
</name>
				<styleUrl>#icon-959-4186F0-nodesc</styleUrl>
				<Point>
					<coordinates>-95.3921036,29.7186628,0.0</coordinates>
				</Point>
			</Placemark>
			<Placemark>
				<name>Hermann Park *
</name>
				<styleUrl>#icon-959-4186F0-nodesc</styleUrl>
				<Point>
					<coordinates>-95.3912536,29.7180244,0.0</coordinates>
				</Point>
			</Placemark>
			<Placemark>
				<name>Hermann Park *
</name>
				<styleUrl>#icon-959-4186F0-nodesc</styleUrl>
				<Point>
					<coordinates>-95.3914065,29.7178241,0.0</coordinates>
				</Point>
			</Placemark>
			<Placemark>
				<name>Hermann Park *
</name>
				<styleUrl>#icon-959-4186F0-nodesc</styleUrl>
				<Point>
					<coordinates>-95.3922889,29.7175749,0.0</coordinates>
				</Point>
			</Placemark>
			<Placemark>
				<name>Hermann Park *
</name>
				<styleUrl>#icon-959-4186F0-nodesc</styleUrl>
				<Point>
					<coordinates>-95.3915567,29.7170344,0.0</coordinates>
				</Point>
			</Placemark>
			<Placemark>
				<name>Hermann Park *
</name>
				<styleUrl>#icon-959-4186F0-nodesc</styleUrl>
				<Point>
					<coordinates>-95.3904677,29.7165476,0.0</coordinates>
				</Point>
			</Placemark>
			<Placemark>
				<name>Hermann Park *
</name>
				<styleUrl>#icon-959-4186F0-nodesc</styleUrl>
				<Point>
					<coordinates>-95.3902746,29.7166034,0.0</coordinates>
				</Point>
			</Placemark>
			<Placemark>
				<name>Macaw Cafe</name>
				<description><![CDATA[The Houston Zoo]]></description>
				<styleUrl>#icon-959-4186F0</styleUrl>
				<Point>
					<coordinates>-95.3914107,29.7158797,0.0</coordinates>
				</Point>
			</Placemark>
			<Placemark>
				<name>Tree Sculpture
</name>
				<description><![CDATA[The Houston Zoo]]></description>
				<styleUrl>#icon-959-4186F0</styleUrl>
				<Point>
					<coordinates>-95.3918087,29.7146127,0.0</coordinates>
				</Point>
			</Placemark>
			<Placemark>
				<name>Moonscape Bench
</name>
				<description><![CDATA[Hermann Park]]></description>
				<styleUrl>#icon-959-4186F0</styleUrl>
				<Point>
					<coordinates>-95.3918114,29.7166827,0.0</coordinates>
				</Point>
			</Placemark>
			<Placemark>
				<name>Buddy Carruth Playground for All Children *
</name>
				<styleUrl>#icon-959-4186F0-nodesc</styleUrl>
				<Point>
					<coordinates>-95.3937131,29.7164892,0.0</coordinates>
				</Point>
			</Placemark>
			<Placemark>
				<name>Hermann Park *
</name>
				<styleUrl>#icon-959-4186F0-nodesc</styleUrl>
				<Point>
					<coordinates>-95.3944642,29.7159256,0.0</coordinates>
				</Point>
			</Placemark>
			<Placemark>
				<name>Hermann Park *
</name>
				<styleUrl>#icon-959-4186F0-nodesc</styleUrl>
				<Point>
					<coordinates>-95.3939572,29.7161795,0.0</coordinates>
				</Point>
			</Placemark>
			<Placemark>
				<name>St. Bernadette</name>
				<description><![CDATA[St. Bernadette Catholic Church. Marquee on corner.]]></description>
				<styleUrl>#icon-959-4186F0</styleUrl>
				<Point>
					<coordinates>-95.1327112,29.5678378,0.0</coordinates>
				</Point>
			</Placemark>
			<Placemark>
				<name>Clear Lake Church of Christ</name>
				<styleUrl>#icon-959-4186F0-nodesc</styleUrl>
				<Point>
					<coordinates>-95.1337314,29.5666086,0.0</coordinates>
				</Point>
			</Placemark>
			<Placemark>
				<name>Clear Lake City Water Tower
</name>
				<styleUrl>#icon-959-4186F0-nodesc</styleUrl>
				<Point>
					<coordinates>-95.134206,29.566832,0.0</coordinates>
				</Point>
			</Placemark>
			<Placemark>
				<name>Little Free Library
</name>
				<description><![CDATA[Free lending library in the parking lot at Clear Lake Presbyterian Church]]></description>
				<styleUrl>#icon-959-4186F0</styleUrl>
				<Point>
					<coordinates>-95.1259321,29.5733947,0.0</coordinates>
				</Point>
			</Placemark>
			<Placemark>
				<name>African Forest
</name>
				<description><![CDATA[The Houston Zoo]]></description>
				<styleUrl>#icon-959-4186F0</styleUrl>
				<Point>
					<coordinates>-95.3910523,29.7118685,0.0</coordinates>
				</Point>
			</Placemark>
			<Placemark>
				<name>(unknown)</name>
				<styleUrl>#icon-959-4186F0-nodesc</styleUrl>
				<Point>
					<coordinates>-95.3909719,29.7088493,0.0</coordinates>
				</Point>
			</Placemark>
			<Placemark>
				<name>Terrell T Waugh Tree
</name>
				<styleUrl>#icon-959-4186F0-nodesc</styleUrl>
				<Point>
					<coordinates>-95.3878176,29.7093758,0.0</coordinates>
				</Point>
			</Placemark>
			<Placemark>
				<name>Accessible Trail
</name>
				<styleUrl>#icon-959-4186F0-nodesc</styleUrl>
				<Point>
					<coordinates>-95.3864926,29.7086769,0.0</coordinates>
				</Point>
			</Placemark>
			<Placemark>
				<name>Beauty and Strength
</name>
				<styleUrl>#icon-959-4186F0-nodesc</styleUrl>
				<Point>
					<coordinates>-95.3852427,29.7082063,0.0</coordinates>
				</Point>
			</Placemark>
			<Placemark>
				<name>Hermann Park Southeast Picnic Shelter
</name>
				<styleUrl>#icon-959-4186F0-nodesc</styleUrl>
				<Point>
					<coordinates>-95.3843039,29.7077171,0.0</coordinates>
				</Point>
			</Placemark>
			<Placemark>
				<name>Brays Bayou Watershed Educational Plaque
</name>
				<styleUrl>#icon-959-4186F0-nodesc</styleUrl>
				<Point>
					<coordinates>-95.3849423,29.7092081,0.0</coordinates>
				</Point>
			</Placemark>
			<Placemark>
				<name>Wild Flowers
</name>
				<styleUrl>#icon-959-4186F0-nodesc</styleUrl>
				<Point>
					<coordinates>-95.3848779,29.7096228,0.0</coordinates>
				</Point>
			</Placemark>
			<Placemark>
				<name>Hermann Park Urban Forest
</name>
				<styleUrl>#icon-959-4186F0-nodesc</styleUrl>
				<Point>
					<coordinates>-95.3847492,29.7102331,0.0</coordinates>
				</Point>
			</Placemark>
			<Placemark>
				<name>Wildflower Site
</name>
				<styleUrl>#icon-959-4186F0-nodesc</styleUrl>
				<Point>
					<coordinates>-95.3835315,29.7097719,0.0</coordinates>
				</Point>
			</Placemark>
			<Placemark>
				<name>Hermann Park Sign
</name>
				<styleUrl>#icon-959-4186F0-nodesc</styleUrl>
				<Point>
					<coordinates>-95.3847653,29.7060351,0.0</coordinates>
				</Point>
			</Placemark>
			<Placemark>
				<name>Veterans Affairs</name>
				<styleUrl>#icon-959-4186F0-nodesc</styleUrl>
				<Point>
					<coordinates>-95.3869736,29.7038346,0.0</coordinates>
				</Point>
			</Placemark>
			<Placemark>
				<name>John P McGovern Bust
</name>
				<styleUrl>#icon-959-4186F0-nodesc</styleUrl>
				<Point>
					<coordinates>-95.3830433,29.7031508,0.0</coordinates>
				</Point>
			</Placemark>
			<Placemark>
				<name>Michael E. DeBakey VA Medical Center Fountain #1
</name>
				<styleUrl>#icon-959-4186F0-nodesc</styleUrl>
				<Point>
					<coordinates>-95.3874233,29.6991693,0.0</coordinates>
				</Point>
			</Placemark>
			<Placemark>
				<name>Michael E. DeBakey VA Medical Center Fountain #2
</name>
				<styleUrl>#icon-959-4186F0-nodesc</styleUrl>
				<Point>
					<coordinates>-95.3885498,29.6989362,0.0</coordinates>
				</Point>
			</Placemark>
			<Placemark>
				<name>Old US Naval Hospital Plaque
</name>
				<description><![CDATA[Michael E. DeBakey VA Medical Center]]></description>
				<styleUrl>#icon-959-4186F0</styleUrl>
				<Point>
					<coordinates>-95.3902235,29.6992531,0.0</coordinates>
				</Point>
			</Placemark>
			<Placemark>
				<name>Healing Statue
</name>
				<description><![CDATA[Michael E. DeBakey VA Medical Center]]></description>
				<styleUrl>#icon-959-4186F0</styleUrl>
				<Point>
					<coordinates>-95.3896871,29.7007442,0.0</coordinates>
				</Point>
			</Placemark>
			<Placemark>
				<name>Richard E. Wainerdi Flag Plaza
</name>
				<styleUrl>#icon-959-4186F0-nodesc</styleUrl>
				<Point>
					<coordinates>-95.3960466,29.704162,0.0</coordinates>
				</Point>
			</Placemark>
			<Placemark>
				<name>Red Oak Dedicated to Dr. James Harlan Steele</name>
				<styleUrl>#icon-959-4186F0-nodesc</styleUrl>
				<Point>
					<coordinates>-95.3976828,29.7045254,0.0</coordinates>
				</Point>
			</Placemark>
			<Placemark>
				<name>UTSPH Library
</name>
				<styleUrl>#icon-959-4186F0-nodesc</styleUrl>
				<Point>
					<coordinates>-95.398192,29.7047347,0.0</coordinates>
				</Point>
			</Placemark>
			<Placemark>
				<name>Sidney Chief Dauphin Memorial Fountain</name>
				<styleUrl>#icon-959-4186F0-nodesc</styleUrl>
				<Point>
					<coordinates>-95.3995791,29.7052034,0.0</coordinates>
				</Point>
			</Placemark>
			<Placemark>
				<name>Giant Tree Sculpture
</name>
				<styleUrl>#icon-959-4186F0-nodesc</styleUrl>
				<Point>
					<coordinates>-95.4000646,29.7051078,0.0</coordinates>
				</Point>
			</Placemark>
			<Placemark>
				<name>(unknown)</name>
				<styleUrl>#icon-959-4186F0-nodesc</styleUrl>
				<Point>
					<coordinates>-95.4019314,29.7046,0.0</coordinates>
				</Point>
			</Placemark>
			<Placemark>
				<name>Cow</name>
				<styleUrl>#icon-959-4186F0-nodesc</styleUrl>
				<Point>
					<coordinates>-95.4017866,29.7071859,0.0</coordinates>
				</Point>
			</Placemark>
			<Placemark>
				<name>Texas Woman's University</name>
				<styleUrl>#icon-959-4186F0-nodesc</styleUrl>
				<Point>
					<coordinates>-95.4033288,29.7070474,0.0</coordinates>
				</Point>
			</Placemark>
			<Placemark>
				<name>Texas Art
</name>
				<styleUrl>#icon-959-4186F0-nodesc</styleUrl>
				<Point>
					<coordinates>-95.4021487,29.7077963,0.0</coordinates>
				</Point>
			</Placemark>
			<Placemark>
				<name>Nurses at UT Health
</name>
				<styleUrl>#icon-959-4186F0-nodesc</styleUrl>
				<Point>
					<coordinates>-95.3975058,29.7143565,0.0</coordinates>
				</Point>
			</Placemark>
			<Placemark>
				<name>Children Playing Mural
</name>
				<styleUrl>#icon-959-4186F0-nodesc</styleUrl>
				<Point>
					<coordinates>-95.3981065,29.7146466,0.0</coordinates>
				</Point>
			</Placemark>
			<Placemark>
				<name>Baker College-Housing and Dining Lot *
</name>
				<styleUrl>#icon-959-4186F0-nodesc</styleUrl>
				<Point>
					<coordinates>-95.3998531,29.7169512,0.0</coordinates>
				</Point>
			</Placemark>
			<Placemark>
				<name>George R. Brown
</name>
				<description><![CDATA[Farnsworth Pavilion at Rice University]]></description>
				<styleUrl>#icon-959-4186F0</styleUrl>
				<Point>
					<coordinates>-95.4023697,29.7176943,0.0</coordinates>
				</Point>
			</Placemark>
			<Placemark>
				<name>Ley Student Center
</name>
				<description><![CDATA[Rice University]]></description>
				<styleUrl>#icon-959-4186F0</styleUrl>
				<Point>
					<coordinates>-95.4026412,29.7177575,0.0</coordinates>
				</Point>
			</Placemark>
			<Placemark>
				<name>J Sayles Leach Memorial Court
</name>
				<description><![CDATA[MD Anderson Biological Laboratories Building at Rice University]]></description>
				<styleUrl>#icon-959-4186F0</styleUrl>
				<Point>
					<coordinates>-95.4024588,29.7189315,0.0</coordinates>
				</Point>
			</Placemark>
			<Placemark>
				<name>W. Edwin Bryan, Jr. Plaza</name>
				<description><![CDATA[Gibbs Recreation and Wellness Center at Rice University]]></description>
				<styleUrl>#icon-959-4186F0</styleUrl>
				<Point>
					<coordinates>-95.4032376,29.7181099,0.0</coordinates>
				</Point>
			</Placemark>
			<Placemark>
				<name>Rice University *
</name>
				<styleUrl>#icon-959-4186F0-nodesc</styleUrl>
				<Point>
					<coordinates>-95.4014879,29.7194906,0.0</coordinates>
				</Point>
			</Placemark>
			<Placemark>
				<name>Physics and Astronomy Department *
</name>
				<description><![CDATA[Rice University]]></description>
				<styleUrl>#icon-959-4186F0</styleUrl>
				<Point>
					<coordinates>-95.4012498,29.7198326,0.0</coordinates>
				</Point>
			</Placemark>
			<Placemark>
				<name>Physics and Astronomy Department *
</name>
				<description><![CDATA[Rice University]]></description>
				<styleUrl>#icon-959-4186F0</styleUrl>
				<Point>
					<coordinates>-95.4015717,29.7198093,0.0</coordinates>
				</Point>
			</Placemark>
			<Placemark>
				<name>Three Crosses
</name>
				<description><![CDATA[Three crosses located at Clear Lake Presbyterian Church on El Dorado Blvd]]></description>
				<styleUrl>#icon-959-4186F0</styleUrl>
				<Point>
					<coordinates>-95.1255083,29.5733574,0.0</coordinates>
				</Point>
			</Placemark>
			<Placemark>
				<name>Bay Forest Pool</name>
				<description><![CDATA[Front entrance gate to pool.]]></description>
				<styleUrl>#icon-959-4186F0</styleUrl>
				<Point>
					<coordinates>-95.1178982,29.5790891,0.0</coordinates>
				</Point>
			</Placemark>
			<Placemark>
				<name>Clear Lake Baptist Church</name>
				<description><![CDATA[Pokemon Go shows the sign by the driveway (Space Center Blvd entrance) but I suspect the actual Pokestop may be at the covered entrance to the building]]></description>
				<styleUrl>#icon-959-4186F0</styleUrl>
				<Point>
					<coordinates>-95.1209514,29.5768753,0.0</coordinates>
				</Point>
			</Placemark>
			<Placemark>
				<name>Lopsided Fountain
</name>
				<description><![CDATA[In front of Beacon Federal Credit Union, located in Clear Lake Plaza shopping center on Clear Lake City Blvd]]></description>
				<styleUrl>#icon-959-4186F0</styleUrl>
				<Point>
					<coordinates>-95.1534964,29.5827289,0.0</coordinates>
				</Point>
			</Placemark>
			<Placemark>
				<name>Inner Workings of a Piano Sculpture</name>
				<description><![CDATA[Forshey Piano Company. Attached to the front of the building.]]></description>
				<styleUrl>#icon-959-4186F0</styleUrl>
				<Point>
					<coordinates>-95.1523741,29.5820876,0.0</coordinates>
				</Point>
			</Placemark>
			<Placemark>
				<name>Archangel Raphael Coptic Orthodox Church Sign
</name>
				<description><![CDATA[Archangel Raphael Coptic Orthodox Church on Crescent Landing Dr, just off Clear Lake City Blvd. Sign at entrance to parking lot.]]></description>
				<styleUrl>#icon-959-4186F0</styleUrl>
				<Point>
					<coordinates>-95.154013,29.5804993,0.0</coordinates>
				</Point>
			</Placemark>
			<Placemark>
				<name>Autumn Leaves Fountain
</name>
				<description><![CDATA[Autumn Leaves of Clear Lake on Crescent Landing Dr, just off Clear Lake City Blvd.]]></description>
				<styleUrl>#icon-959-4186F0</styleUrl>
				<Point>
					<coordinates>-95.1535011,29.5807562,0.0</coordinates>
				</Point>
			</Placemark>
			<Placemark>
				<name>Dads Club</name>
				<description><![CDATA[Dad's Club Sports Park sign on Village Evergreen Dr by soccer fields.]]></description>
				<styleUrl>#icon-959-4186F0</styleUrl>
				<Point>
					<coordinates>-95.1495952,29.5747226,0.0</coordinates>
				</Point>
			</Placemark>
			<Placemark>
				<name>Church of Jesus Christ of Latter Day Saints Spire</name>
				<description><![CDATA[Church of Jesus Christ of Latter Day Saints at the corner of Gunwale and Seahorse in Clear Lake. Spire next to building.]]></description>
				<styleUrl>#icon-959-4186F0</styleUrl>
				<Point>
					<coordinates>-95.1188577,29.574797,0.0</coordinates>
				</Point>
			</Placemark>
			<Placemark>
				<name>Bay Forest Park</name>
				<description><![CDATA[Bay Forest Park sign on Manor Square Dr in Bay Forest subdivision in Clear Lake. Sign by sidewalk entrance to park.]]></description>
				<styleUrl>#icon-959-4186F0</styleUrl>
				<Point>
					<coordinates>-95.1164498,29.5787439,0.0</coordinates>
				</Point>
			</Placemark>
			<Placemark>
				<name>Log With Steering Wheel
</name>
				<description><![CDATA[At playground in Bay Forest Park, in Bay Forest Subdivision, in Clear Lake]]></description>
				<styleUrl>#icon-959-4186F0</styleUrl>
				<Point>
					<coordinates>-95.1165946,29.579411,0.0</coordinates>
				</Point>
			</Placemark>
			<Placemark>
				<name>Rice Sally Port
</name>
				<description><![CDATA[Lovett Hall at Rice University]]></description>
				<styleUrl>#icon-959-4186F0</styleUrl>
				<Point>
					<coordinates>-95.3976707,29.7191089,0.0</coordinates>
				</Point>
			</Placemark>
			<Placemark>
				<name>Christ the King</name>
				<description><![CDATA[Christ the King Lutheran Church]]></description>
				<styleUrl>#icon-959-4186F0</styleUrl>
				<Point>
					<coordinates>-95.4129617,29.7173785,0.0</coordinates>
				</Point>
			</Placemark>
			<Placemark>
				<name>Hungry's</name>
				<styleUrl>#icon-959-4186F0-nodesc</styleUrl>
				<Point>
					<coordinates>-95.4135973,29.7176078,0.0</coordinates>
				</Point>
			</Placemark>
			<Placemark>
				<name>Hanover Courtyard
</name>
				<styleUrl>#icon-959-4186F0-nodesc</styleUrl>
				<Point>
					<coordinates>-95.4152298,29.7184983,0.0</coordinates>
				</Point>
			</Placemark>
			<Placemark>
				<name>Kelvin Arms
</name>
				<styleUrl>#icon-959-4186F0-nodesc</styleUrl>
				<Point>
					<coordinates>-95.4162597,29.719239,0.0</coordinates>
				</Point>
			</Placemark>
			<Placemark>
				<name>Fountain Fixture
</name>
				<styleUrl>#icon-959-4186F0-nodesc</styleUrl>
				<Point>
					<coordinates>-95.4157985,29.7153535,0.0</coordinates>
				</Point>
			</Placemark>
			<Placemark>
				<name>Bike Rack *
</name>
				<description><![CDATA[Bike rack that is shaped like a bike.<br>((Bike-ception!))]]></description>
				<styleUrl>#icon-959-4186F0</styleUrl>
				<Point>
					<coordinates>-95.4151708,29.7152952,0.0</coordinates>
				</Point>
			</Placemark>
			<Placemark>
				<name>Willy Wonka
</name>
				<styleUrl>#icon-959-4186F0-nodesc</styleUrl>
				<Point>
					<coordinates>-95.4176196,29.7149505,0.0</coordinates>
				</Point>
			</Placemark>
			<Placemark>
				<name>Amazon Grill Flower
</name>
				<styleUrl>#icon-959-4186F0-nodesc</styleUrl>
				<Point>
					<coordinates>-95.4188802,29.726672,0.0</coordinates>
				</Point>
			</Placemark>
			<Placemark>
				<name>Elevation Burger Waterfall</name>
				<description><![CDATA[Elevation Burger Kirby]]></description>
				<styleUrl>#icon-959-4186F0</styleUrl>
				<Point>
					<coordinates>-95.4183903,29.7323498,0.0</coordinates>
				</Point>
			</Placemark>
			<Placemark>
				<name>Taco Cabana Metal Art
</name>
				<description><![CDATA[Taco Cabana]]></description>
				<styleUrl>#icon-959-4186F0</styleUrl>
				<Point>
					<coordinates>-95.4183555,29.7318956,0.0</coordinates>
				</Point>
			</Placemark>
			<Placemark>
				<name>Picos Fountain
</name>
				<description><![CDATA[Picos Restaurant]]></description>
				<styleUrl>#icon-959-4186F0</styleUrl>
				<Point>
					<coordinates>-95.4182798,29.733683,0.0</coordinates>
				</Point>
			</Placemark>
			<Placemark>
				<name>Carrabba's Fountain
</name>
				<description><![CDATA[Carrabba's]]></description>
				<styleUrl>#icon-959-4186F0</styleUrl>
				<Point>
					<coordinates>-95.4184036,29.7366451,0.0</coordinates>
				</Point>
			</Placemark>
			<Placemark>
				<name>Carrabba's Urn
</name>
				<description><![CDATA[Carrabba's]]></description>
				<styleUrl>#icon-959-4186F0</styleUrl>
				<Point>
					<coordinates>-95.417894,29.7368361,0.0</coordinates>
				</Point>
			</Placemark>
			<Placemark>
				<name>Grace's Fountain
</name>
				<description><![CDATA[Grace's]]></description>
				<styleUrl>#icon-959-4186F0</styleUrl>
				<Point>
					<coordinates>-95.4184364,29.7370888,0.0</coordinates>
				</Point>
			</Placemark>
			<Placemark>
				<name>Fleming's Fountain
</name>
				<styleUrl>#icon-959-4186F0-nodesc</styleUrl>
				<Point>
					<coordinates>-95.4177055,29.7379657,0.0</coordinates>
				</Point>
			</Placemark>
			<Placemark>
				<name>The Chocolate Bar</name>
				<styleUrl>#icon-959-4186F0-nodesc</styleUrl>
				<Point>
					<coordinates>-95.40589649999998,29.73837360000001,0.0</coordinates>
				</Point>
			</Placemark>
			<Placemark>
				<name>Auntie Chang's Dumpling House</name>
				<styleUrl>#icon-959-4186F0-nodesc</styleUrl>
				<Point>
					<coordinates>-95.410347,29.74121599999999,0.0</coordinates>
				</Point>
			</Placemark>
			<Placemark>
				<name>Auntie Chang's #2</name>
				<description><![CDATA[Auntie Chang's Dumpling House]]></description>
				<styleUrl>#icon-959-4186F0</styleUrl>
				<Point>
					<coordinates>-95.4103497,29.7419286,0.0</coordinates>
				</Point>
			</Placemark>
			<Placemark>
				<name>St Stephens Episcopal School - Houston</name>
				<styleUrl>#icon-959-4186F0-nodesc</styleUrl>
				<Point>
					<coordinates>-95.40484200000003,29.738078,0.0</coordinates>
				</Point>
			</Placemark>
			<Placemark>
				<name>University of St. Thomas Catering</name>
				<styleUrl>#icon-959-4186F0-nodesc</styleUrl>
				<Point>
					<coordinates>-95.3944616,29.7373752,0.0</coordinates>
				</Point>
			</Placemark>
			<Placemark>
				<name>Chapel of St. Basil</name>
				<styleUrl>#icon-959-4186F0-nodesc</styleUrl>
				<Point>
					<coordinates>-95.39320620000001,29.73847799999999,0.0</coordinates>
				</Point>
			</Placemark>
			<Placemark>
				<name>Robert Pace &amp; Ada Doherty Library</name>
				<styleUrl>#icon-959-4186F0-nodesc</styleUrl>
				<Point>
					<coordinates>-95.39303180000002,29.7365217,0.0</coordinates>
				</Point>
			</Placemark>
			<Placemark>
				<name>Brooklyn Athletic Club</name>
				<styleUrl>#icon-959-4186F0-nodesc</styleUrl>
				<Point>
					<coordinates>-95.38722310000003,29.7342558,0.0</coordinates>
				</Point>
			</Placemark>
			<Placemark>
				<name>Mural
</name>
				<description><![CDATA[Pak's]]></description>
				<styleUrl>#icon-959-4186F0</styleUrl>
				<Point>
					<coordinates>-95.3838269,29.7386743,0.0</coordinates>
				</Point>
			</Placemark>
			<Placemark>
				<name>Holy Rosary Church</name>
				<styleUrl>#icon-959-4186F0-nodesc</styleUrl>
				<Point>
					<coordinates>-95.3810216,29.7395592,0.0</coordinates>
				</Point>
			</Placemark>
			<Placemark>
				<name>Barack Obama Mural
</name>
				<styleUrl>#icon-959-4186F0-nodesc</styleUrl>
				<Point>
					<coordinates>-95.3811523,29.7387808,0.0</coordinates>
				</Point>
			</Placemark>
			<Placemark>
				<name>Breakfast Klub Mural
</name>
				<description><![CDATA[Breakfast Klub]]></description>
				<styleUrl>#icon-959-4186F0</styleUrl>
				<Point>
					<coordinates>-95.3804801,29.7383934,0.0</coordinates>
				</Point>
			</Placemark>
			<Placemark>
				<name>Tacos A Go-Go</name>
				<styleUrl>#icon-959-4186F0-nodesc</styleUrl>
				<Point>
					<coordinates>-95.3798121,29.7384076,0.0</coordinates>
				</Point>
			</Placemark>
			<Placemark>
				<name>My Flaming Heart
</name>
				<styleUrl>#icon-959-4186F0-nodesc</styleUrl>
				<Point>
					<coordinates>-95.3795511,29.7387272,0.0</coordinates>
				</Point>
			</Placemark>
			<Placemark>
				<name>Ensemble Theater</name>
				<styleUrl>#icon-959-4186F0-nodesc</styleUrl>
				<Point>
					<coordinates>-95.3788946,29.7390388,0.0</coordinates>
				</Point>
			</Placemark>
			<Placemark>
				<name>Lord of the Streets Episcopal Church</name>
				<styleUrl>#icon-959-4186F0-nodesc</styleUrl>
				<Point>
					<coordinates>-95.3771097,29.7396456,0.0</coordinates>
				</Point>
			</Placemark>
			<Placemark>
				<name>Trinity Episcopal Church
</name>
				<styleUrl>#icon-959-4186F0-nodesc</styleUrl>
				<Point>
					<coordinates>-95.3778635,29.7403709,0.0</coordinates>
				</Point>
			</Placemark>
			<Placemark>
				<name>HCC Administration Building
</name>
				<description><![CDATA[Houston Community College]]></description>
				<styleUrl>#icon-959-4186F0</styleUrl>
				<Point>
					<coordinates>-95.3771778,29.7419313,0.0</coordinates>
				</Point>
			</Placemark>
			<Placemark>
				<name>American Energy Relief
</name>
				<styleUrl>#icon-959-4186F0-nodesc</styleUrl>
				<Point>
					<coordinates>-95.3777969,29.7425676,0.0</coordinates>
				</Point>
			</Placemark>
			<Placemark>
				<name>Eyeful Art
</name>
				<styleUrl>#icon-959-4186F0-nodesc</styleUrl>
				<Point>
					<coordinates>-95.3764075,29.7434619,0.0</coordinates>
				</Point>
			</Placemark>
			<Placemark>
				<name>Invaders Spotted Art Installation
</name>
				<styleUrl>#icon-959-4186F0-nodesc</styleUrl>
				<Point>
					<coordinates>-95.3779042,29.7439975,0.0</coordinates>
				</Point>
			</Placemark>
			<Placemark>
				<name>Wall Art
</name>
				<description><![CDATA[Next to Nouveau Antique Art Bar]]></description>
				<styleUrl>#icon-959-4186F0</styleUrl>
				<Point>
					<coordinates>-95.3755612,29.7427537,0.0</coordinates>
				</Point>
			</Placemark>
			<Placemark>
				<name>Shades Mural
</name>
				<styleUrl>#icon-959-4186F0-nodesc</styleUrl>
				<Point>
					<coordinates>-95.3752863,29.7435853,0.0</coordinates>
				</Point>
			</Placemark>
			<Placemark>
				<name>Crone of Fannin
</name>
				<styleUrl>#icon-959-4186F0-nodesc</styleUrl>
				<Point>
					<coordinates>-95.3745514,29.7436855,0.0</coordinates>
				</Point>
			</Placemark>
			<Placemark>
				<name>Fossilized Houston
</name>
				<styleUrl>#icon-959-4186F0-nodesc</styleUrl>
				<Point>
					<coordinates>-95.3753883,29.7439393,0.0</coordinates>
				</Point>
			</Placemark>
			<Placemark>
				<name>Leon's Lounge</name>
				<styleUrl>#icon-959-4186F0-nodesc</styleUrl>
				<Point>
					<coordinates>-95.3732586,29.7451178,0.0</coordinates>
				</Point>
			</Placemark>
			<Placemark>
				<name>Sheridan Apartments
</name>
				<styleUrl>#icon-959-4186F0-nodesc</styleUrl>
				<Point>
					<coordinates>-95.3758174,29.7467082,0.0</coordinates>
				</Point>
			</Placemark>
			<Placemark>
				<name>Potbelly Louisiana St Submarine
</name>
				<styleUrl>#icon-959-4186F0-nodesc</styleUrl>
				<Point>
					<coordinates>-95.3766382,29.7467735,0.0</coordinates>
				</Point>
			</Placemark>
			<Placemark>
				<name>The Houston Fire Museum</name>
				<styleUrl>#icon-959-4186F0-nodesc</styleUrl>
				<Point>
					<coordinates>-95.3748468,29.7474281,0.0</coordinates>
				</Point>
			</Placemark>
			<Placemark>
				<name>Flying Pig
</name>
				<styleUrl>#icon-959-4186F0-nodesc</styleUrl>
				<Point>
					<coordinates>-95.3776413,29.7455206,0.0</coordinates>
				</Point>
			</Placemark>
			<Placemark>
				<name>(unknown)</name>
				<styleUrl>#icon-959-4186F0-nodesc</styleUrl>
				<Point>
					<coordinates>-95.3906983,29.7450688,0.0</coordinates>
				</Point>
			</Placemark>
			<Placemark>
				<name>Lamar Park Fountain
</name>
				<styleUrl>#icon-959-4186F0-nodesc</styleUrl>
				<Point>
					<coordinates>-95.3944163,29.747264,0.0</coordinates>
				</Point>
			</Placemark>
			<Placemark>
				<name>Lamar Park</name>
				<styleUrl>#icon-959-4186F0-nodesc</styleUrl>
				<Point>
					<coordinates>-95.3947784,29.7470893,0.0</coordinates>
				</Point>
			</Placemark>
			<Placemark>
				<name>Lamar Park Fountain
</name>
				<styleUrl>#icon-959-4186F0-nodesc</styleUrl>
				<Point>
					<coordinates>-95.3957923,29.7466538,0.0</coordinates>
				</Point>
			</Placemark>
			<Placemark>
				<name>Grace Lutheran Church</name>
				<styleUrl>#icon-959-4186F0-nodesc</styleUrl>
				<Point>
					<coordinates>-95.3939852,29.7463875,0.0</coordinates>
				</Point>
			</Placemark>
			<Placemark>
				<name>Gargoyle</name>
				<styleUrl>#icon-959-4186F0-nodesc</styleUrl>
				<Point>
					<coordinates>-95.4019824,29.7471647,0.0</coordinates>
				</Point>
			</Placemark>
			<Placemark>
				<name>KoolAid Man
</name>
				<description><![CDATA[On the patio of Poison Girl.]]></description>
				<styleUrl>#icon-959-4186F0</styleUrl>
				<Point>
					<coordinates>-95.4010447,29.7424416,0.0</coordinates>
				</Point>
			</Placemark>
			<Placemark>
				<name>Clock Tower
</name>
				<styleUrl>#icon-959-4186F0-nodesc</styleUrl>
				<Point>
					<coordinates>-95.4074085,29.7425769,0.0</coordinates>
				</Point>
			</Placemark>
			<Placemark>
				<name>Lion Fountain
</name>
				<styleUrl>#icon-959-4186F0-nodesc</styleUrl>
				<Point>
					<coordinates>-95.4102731,29.7435783,0.0</coordinates>
				</Point>
			</Placemark>
			<Placemark>
				<name>A Sunday Afternoon Torchy's Inspired Painting</name>
				<description><![CDATA[Torchy's Tacos]]></description>
				<styleUrl>#icon-959-4186F0</styleUrl>
				<Point>
					<coordinates>-95.41043159999998,29.7441451,0.0</coordinates>
				</Point>
			</Placemark>
			<Placemark>
				<name>Butterfly Art
</name>
				<description><![CDATA[Billie Jean's]]></description>
				<styleUrl>#icon-959-4186F0</styleUrl>
				<Point>
					<coordinates>-95.41042140000002,29.744509,0.0</coordinates>
				</Point>
			</Placemark>
			<Placemark>
				<name>Irish Pub Kenneally's</name>
				<styleUrl>#icon-959-4186F0-nodesc</styleUrl>
				<Point>
					<coordinates>-95.41043890000003,29.7464845,0.0</coordinates>
				</Point>
			</Placemark>
			<Placemark>
				<name>Barnaby's Cafe</name>
				<styleUrl>#icon-959-4186F0-nodesc</styleUrl>
				<Point>
					<coordinates>-95.41039969999997,29.750436,0.0</coordinates>
				</Point>
			</Placemark>
			<Placemark>
				<name>River Oaks Theatre</name>
				<styleUrl>#icon-959-4186F0-nodesc</styleUrl>
				<Point>
					<coordinates>-95.4091459,29.7526327,0.0</coordinates>
				</Point>
			</Placemark>
			<Placemark>
				<name></name>
				<styleUrl>#icon-959-4186F0-nodesc</styleUrl>
				<Point>
					<coordinates>-95.4073629,29.7528048,0.0</coordinates>
				</Point>
			</Placemark>
			<Placemark>
				<name>Autry Park</name>
				<styleUrl>#icon-959-4186F0-nodesc</styleUrl>
				<Point>
					<coordinates>-95.4076646,29.7595308,0.0</coordinates>
				</Point>
			</Placemark>
			<Placemark>
				<name>Justice For All Mural
</name>
				<description><![CDATA[May be accessible off of Dickson St.]]></description>
				<styleUrl>#icon-959-4186F0</styleUrl>
				<Point>
					<coordinates>-95.4060566,29.7649362,0.0</coordinates>
				</Point>
			</Placemark>
			<Placemark>
				<name>Three Brothers Bakery - Washington
</name>
				<styleUrl>#icon-959-4186F0-nodesc</styleUrl>
				<Point>
					<coordinates>-95.4126951,29.7649734,0.0</coordinates>
				</Point>
			</Placemark>
			<Placemark>
				<name>Houston Center for the Arts
</name>
				<description><![CDATA[Houston Arts Alliance]]></description>
				<styleUrl>#icon-959-4186F0</styleUrl>
				<Point>
					<coordinates>-95.3992076,29.7606059,0.0</coordinates>
				</Point>
			</Placemark>
			<Placemark>
				<name>Star Fountain
</name>
				<styleUrl>#icon-959-4186F0-nodesc</styleUrl>
				<Point>
					<coordinates>-95.3992599,29.759823,0.0</coordinates>
				</Point>
			</Placemark>
			<Placemark>
				<name>Waugh Drive Bat Colony
</name>
				<styleUrl>#icon-959-4186F0-nodesc</styleUrl>
				<Point>
					<coordinates>-95.3980408,29.7616729,0.0</coordinates>
				</Point>
			</Placemark>
			<Placemark>
				<name>Spotts Park Entrance Arch
</name>
				<styleUrl>#icon-959-4186F0-nodesc</styleUrl>
				<Point>
					<coordinates>-95.3949206,29.7666442,0.0</coordinates>
				</Point>
			</Placemark>
			<Placemark>
				<name>Shaper Triangle Fountain</name>
				<description><![CDATA[Memorial by Windsor]]></description>
				<styleUrl>#icon-959-4186F0</styleUrl>
				<Point>
					<coordinates>-95.39156270000001,29.7639542,0.0</coordinates>
				</Point>
			</Placemark>
			<Placemark>
				<name>Buffalo Bayou Walk North Trail Sign
</name>
				<description><![CDATA[Buffalo Bayou Park]]></description>
				<styleUrl>#icon-959-4186F0</styleUrl>
				<Point>
					<coordinates>-95.3912661,29.7632588,0.0</coordinates>
				</Point>
			</Placemark>
			<Placemark>
				<name>Memorial Drive Extension Structure IV</name>
				<description><![CDATA[Buffalo Bayou Park]]></description>
				<styleUrl>#icon-959-4186F0</styleUrl>
				<Point>
					<coordinates>-95.3906653,29.7631401,0.0</coordinates>
				</Point>
			</Placemark>
			<Placemark>
				<name>Star Pizza
</name>
				<styleUrl>#icon-959-4186F0-nodesc</styleUrl>
				<Point>
					<coordinates>-95.396193,29.769802,0.0</coordinates>
				</Point>
			</Placemark>
			<Placemark>
				<name>Washington Cemetery Historical Marker
</name>
				<styleUrl>#icon-959-4186F0-nodesc</styleUrl>
				<Point>
					<coordinates>-95.388865,29.7667851,0.0</coordinates>
				</Point>
			</Placemark>
			<Placemark>
				<name>William Gammel
</name>
				<description><![CDATA[Historical marker in Washington Cemetery]]></description>
				<styleUrl>#icon-959-4186F0</styleUrl>
				<Point>
					<coordinates>-95.3890366,29.7669527,0.0</coordinates>
				</Point>
			</Placemark>
			<Placemark>
				<name>Historic Washington Cemetery</name>
				<styleUrl>#icon-959-4186F0-nodesc</styleUrl>
				<Point>
					<coordinates>-95.3891654,29.7686384,0.0</coordinates>
				</Point>
			</Placemark>
			<Placemark>
				<name>Fonde Recreation Center *
</name>
				<styleUrl>#icon-959-4186F0-nodesc</styleUrl>
				<Point>
					<coordinates>-95.3750698,29.7632319,0.0</coordinates>
				</Point>
			</Placemark>
			<Placemark>
				<name>Sam Houston Park *
</name>
				<styleUrl>#icon-959-4186F0-nodesc</styleUrl>
				<Point>
					<coordinates>-95.372207,29.7589103,0.0</coordinates>
				</Point>
			</Placemark>
			<Placemark>
				<name>Sam Houston Park</name>
				<styleUrl>#icon-959-4186F0-nodesc</styleUrl>
				<Point>
					<coordinates>-95.3726684,29.759064,0.0</coordinates>
				</Point>
			</Placemark>
			<Placemark>
				<name>Sam Houston Park *
</name>
				<styleUrl>#icon-959-4186F0-nodesc</styleUrl>
				<Point>
					<coordinates>-95.3722339,29.75939,0.0</coordinates>
				</Point>
			</Placemark>
			<Placemark>
				<name>Sam Houston Park *
</name>
				<styleUrl>#icon-959-4186F0-nodesc</styleUrl>
				<Point>
					<coordinates>-95.3717188,29.759227,0.0</coordinates>
				</Point>
			</Placemark>
			<Placemark>
				<name>Sam Houston Park *
</name>
				<styleUrl>#icon-959-4186F0-nodesc</styleUrl>
				<Point>
					<coordinates>-95.371338,29.7602329,0.0</coordinates>
				</Point>
			</Placemark>
			<Placemark>
				<name>Sam Houston Park *
</name>
				<styleUrl>#icon-959-4186F0-nodesc</styleUrl>
				<Point>
					<coordinates>-95.3712522,29.7605542,0.0</coordinates>
				</Point>
			</Placemark>
			<Placemark>
				<name>Sam Houston Park *
</name>
				<styleUrl>#icon-959-4186F0-nodesc</styleUrl>
				<Point>
					<coordinates>-95.370764,29.7601723,0.0</coordinates>
				</Point>
			</Placemark>
			<Placemark>
				<name>Sam Houston Park *
</name>
				<styleUrl>#icon-959-4186F0-nodesc</styleUrl>
				<Point>
					<coordinates>-95.3707801,29.7596275,0.0</coordinates>
				</Point>
			</Placemark>
			<Placemark>
				<name>Sam Houston Park *
</name>
				<styleUrl>#icon-959-4186F0-nodesc</styleUrl>
				<Point>
					<coordinates>-95.3712897,29.7588544,0.0</coordinates>
				</Point>
			</Placemark>
			<Placemark>
				<name>(unknown)</name>
				<styleUrl>#icon-959-4186F0-nodesc</styleUrl>
				<Point>
					<coordinates>-95.3702921,29.758568,0.0</coordinates>
				</Point>
			</Placemark>
			<Placemark>
				<name>Houston City Hall Annex *
</name>
				<styleUrl>#icon-959-4186F0-nodesc</styleUrl>
				<Point>
					<coordinates>-95.3700292,29.7604404,0.0</coordinates>
				</Point>
			</Placemark>
			<Placemark>
				<name>The Hobby Center for the Performing Arts</name>
				<styleUrl>#icon-959-4186F0-nodesc</styleUrl>
				<Point>
					<coordinates>-95.3695974,29.7611433,0.0</coordinates>
				</Point>
			</Placemark>
			<Placemark>
				<name>Tranquility Park *
</name>
				<styleUrl>#icon-959-4186F0-nodesc</styleUrl>
				<Point>
					<coordinates>-95.3688611,29.7607279,0.0</coordinates>
				</Point>
			</Placemark>
			<Placemark>
				<name>Tranquility Park *
</name>
				<styleUrl>#icon-959-4186F0-nodesc</styleUrl>
				<Point>
					<coordinates>-95.3676192,29.760339,0.0</coordinates>
				</Point>
			</Placemark>
			<Placemark>
				<name>Tranquility Park *
</name>
				<styleUrl>#icon-959-4186F0-nodesc</styleUrl>
				<Point>
					<coordinates>-95.367874,29.7599851,0.0</coordinates>
				</Point>
			</Placemark>
			<Placemark>
				<name>(unknown)
</name>
				<styleUrl>#icon-959-4186F0-nodesc</styleUrl>
				<Point>
					<coordinates>-95.3679988,29.7612317,0.0</coordinates>
				</Point>
			</Placemark>
			<Placemark>
				<name>USPS</name>
				<styleUrl>#icon-959-4186F0-nodesc</styleUrl>
				<Point>
					<coordinates>-95.3675345,29.7608973,0.0</coordinates>
				</Point>
			</Placemark>
			<Placemark>
				<name>(unknown)</name>
				<styleUrl>#icon-959-4186F0-nodesc</styleUrl>
				<Point>
					<coordinates>-95.3659576,29.7606985,0.0</coordinates>
				</Point>
			</Placemark>
			<Placemark>
				<name>(unknown)</name>
				<styleUrl>#icon-959-4186F0-nodesc</styleUrl>
				<Point>
					<coordinates>-95.365845,29.7603679,0.0</coordinates>
				</Point>
			</Placemark>
			<Placemark>
				<name>Jones Hall for the Performing Arts *
</name>
				<styleUrl>#icon-959-4186F0-nodesc</styleUrl>
				<Point>
					<coordinates>-95.3649759,29.7608569,0.0</coordinates>
				</Point>
			</Placemark>
			<Placemark>
				<name>Jones Hall for the Performing Arts *
</name>
				<styleUrl>#icon-959-4186F0-nodesc</styleUrl>
				<Point>
					<coordinates>-95.3652334,29.7611596,0.0</coordinates>
				</Point>
			</Placemark>
			<Placemark>
				<name>Jones Hall for the Performing Arts *
</name>
				<styleUrl>#icon-959-4186F0-nodesc</styleUrl>
				<Point>
					<coordinates>-95.3651985,29.7606101,0.0</coordinates>
				</Point>
			</Placemark>
			<Placemark>
				<name>Hearst Media Houston *
</name>
				<styleUrl>#icon-959-4186F0-nodesc</styleUrl>
				<Point>
					<coordinates>-95.3640661,29.7610357,0.0</coordinates>
				</Point>
			</Placemark>
			<Placemark>
				<name>(unknown)</name>
				<styleUrl>#icon-959-4186F0-nodesc</styleUrl>
				<Point>
					<coordinates>-95.3634337,29.7606706,0.0</coordinates>
				</Point>
			</Placemark>
			<Placemark>
				<name>The Rice</name>
				<styleUrl>#icon-959-4186F0-nodesc</styleUrl>
				<Point>
					<coordinates>-95.3629911,29.7603679,0.0</coordinates>
				</Point>
			</Placemark>
			<Placemark>
				<name>The Rice *
</name>
				<styleUrl>#icon-959-4186F0-nodesc</styleUrl>
				<Point>
					<coordinates>-95.3624707,29.760326,0.0</coordinates>
				</Point>
			</Placemark>
			<Placemark>
				<name>(unknown)</name>
				<styleUrl>#icon-959-4186F0-nodesc</styleUrl>
				<Point>
					<coordinates>-95.3625673,29.7612806,0.0</coordinates>
				</Point>
			</Placemark>
			<Placemark>
				<name>(unknown)</name>
				<styleUrl>#icon-959-4186F0-nodesc</styleUrl>
				<Point>
					<coordinates>-95.3621381,29.7595529,0.0</coordinates>
				</Point>
			</Placemark>
			<Placemark>
				<name>(unknown)</name>
				<styleUrl>#icon-959-4186F0-nodesc</styleUrl>
				<Point>
					<coordinates>-95.3616983,29.7596554,0.0</coordinates>
				</Point>
			</Placemark>
			<Placemark>
				<name>(unknown)</name>
				<styleUrl>#icon-959-4186F0-nodesc</styleUrl>
				<Point>
					<coordinates>-95.3612101,29.759362,0.0</coordinates>
				</Point>
			</Placemark>
			<Placemark>
				<name>(unknown)</name>
				<styleUrl>#icon-959-4186F0-nodesc</styleUrl>
				<Point>
					<coordinates>-95.3608238,29.7590406,0.0</coordinates>
				</Point>
			</Placemark>
			<Placemark>
				<name>The Beacon *
</name>
				<styleUrl>#icon-959-4186F0-nodesc</styleUrl>
				<Point>
					<coordinates>-95.3603748,29.7590164,0.0</coordinates>
				</Point>
			</Placemark>
			<Placemark>
				<name>(unknown)</name>
				<styleUrl>#icon-959-4186F0-nodesc</styleUrl>
				<Point>
					<coordinates>-95.359987,29.7586448,0.0</coordinates>
				</Point>
			</Placemark>
			<Placemark>
				<name>(unknown)</name>
				<styleUrl>#icon-959-4186F0-nodesc</styleUrl>
				<Point>
					<coordinates>-95.3596062,29.7583537,0.0</coordinates>
				</Point>
			</Placemark>
			<Placemark>
				<name></name>
				<styleUrl>#icon-959-4186F0-nodesc</styleUrl>
				<Point>
					<coordinates>-95.3593701,29.7578391,0.0</coordinates>
				</Point>
			</Placemark>
			<Placemark>
				<name></name>
				<styleUrl>#icon-959-4186F0-nodesc</styleUrl>
				<Point>
					<coordinates>-95.3582865,29.7575737,0.0</coordinates>
				</Point>
			</Placemark>
			<Placemark>
				<name></name>
				<styleUrl>#icon-959-4186F0-nodesc</styleUrl>
				<Point>
					<coordinates>-95.3581309,29.7570614,0.0</coordinates>
				</Point>
			</Placemark>
			<Placemark>
				<name>(unknown)</name>
				<styleUrl>#icon-959-4186F0-nodesc</styleUrl>
				<Point>
					<coordinates>-95.3592682,29.7562837,0.0</coordinates>
				</Point>
			</Placemark>
			<Placemark>
				<name>Houston Union Station</name>
				<styleUrl>#icon-959-4186F0-nodesc</styleUrl>
				<Point>
					<coordinates>-95.3568933,29.7572499,0.0</coordinates>
				</Point>
			</Placemark>
			<Placemark>
				<name>Minute Maid Park Baseballs
</name>
				<description><![CDATA[Minute Maid Park]]></description>
				<styleUrl>#icon-959-4186F0</styleUrl>
				<Point>
					<coordinates>-95.3565592,29.7575548,0.0</coordinates>
				</Point>
			</Placemark>
			<Placemark>
				<name>Orange Train at Minute Maid Park</name>
				<styleUrl>#icon-959-4186F0-nodesc</styleUrl>
				<Point>
					<coordinates>-95.3561756,29.7576805,0.0</coordinates>
				</Point>
			</Placemark>
			<Placemark>
				<name>Astro Mickey
</name>
				<description><![CDATA[Minute Maid Park]]></description>
				<styleUrl>#icon-959-4186F0</styleUrl>
				<Point>
					<coordinates>-95.3547058,29.7574081,0.0</coordinates>
				</Point>
			</Placemark>
			<Placemark>
				<name>Tribute to Teamwork
</name>
				<description><![CDATA[Minute Maid Park]]></description>
				<styleUrl>#icon-959-4186F0</styleUrl>
				<Point>
					<coordinates>-95.3542015,29.7572777,0.0</coordinates>
				</Point>
			</Placemark>
			<Placemark>
				<name>Welcome to Texas
</name>
				<description><![CDATA[Minute Maid Park]]></description>
				<styleUrl>#icon-959-4186F0</styleUrl>
				<Point>
					<coordinates>-95.3541774,29.756798,0.0</coordinates>
				</Point>
			</Placemark>
			<Placemark>
				<name>Minute Maid Park Baseballs #6
</name>
				<description><![CDATA[Minute Maid Park]]></description>
				<styleUrl>#icon-959-4186F0</styleUrl>
				<Point>
					<coordinates>-95.3561005,29.7563556,0.0</coordinates>
				</Point>
			</Placemark>
			<Placemark>
				<name>Play Ball!
</name>
				<description><![CDATA[Minute Maid Park]]></description>
				<styleUrl>#icon-959-4186F0</styleUrl>
				<Point>
					<coordinates>-95.3556794,29.7560133,0.0</coordinates>
				</Point>
			</Placemark>
			<Placemark>
				<name>Bell Tower at Minute Maid Park</name>
				<description><![CDATA[Minute Maid Park]]></description>
				<styleUrl>#icon-959-4186F0</styleUrl>
				<Point>
					<coordinates>-95.3551242,29.7558014,0.0</coordinates>
				</Point>
			</Placemark>
			<Placemark>
				<name>Houston's First Retractable Stadium Roof
</name>
				<description><![CDATA[Minute Maid Park]]></description>
				<styleUrl>#icon-959-4186F0</styleUrl>
				<Point>
					<coordinates>-95.3545744,29.7581625,0.0</coordinates>
				</Point>
			</Placemark>
			<Placemark>
				<name>Minute Maid Park Train
</name>
				<styleUrl>#icon-959-4186F0-nodesc</styleUrl>
				<Point>
					<coordinates>-95.3553093,29.7540809,0.0</coordinates>
				</Point>
			</Placemark>
			<Placemark>
				<name>Discovery Green *
</name>
				<styleUrl>#icon-959-4186F0-nodesc</styleUrl>
				<Point>
					<coordinates>-95.3586599,29.7539809,0.0</coordinates>
				</Point>
			</Placemark>
			<Placemark>
				<name>Discovery Green *
</name>
				<styleUrl>#icon-959-4186F0-nodesc</styleUrl>
				<Point>
					<coordinates>-95.3589522,29.7536037,0.0</coordinates>
				</Point>
			</Placemark>
			<Placemark>
				<name>Discovery Green *
</name>
				<styleUrl>#icon-959-4186F0-nodesc</styleUrl>
				<Point>
					<coordinates>-95.3587243,29.7534686,0.0</coordinates>
				</Point>
			</Placemark>
			<Placemark>
				<name>Mist Tree
</name>
				<description><![CDATA[Large, circular sculpture and fountain at Discovery Green]]></description>
				<styleUrl>#icon-959-4186F0</styleUrl>
				<Point>
					<coordinates>-95.360642,29.7536526,0.0</coordinates>
				</Point>
			</Placemark>
			<Placemark>
				<name>Discovery Green *
</name>
				<styleUrl>#icon-959-4186F0-nodesc</styleUrl>
				<Point>
					<coordinates>-95.3598159,29.7540042,0.0</coordinates>
				</Point>
			</Placemark>
			<Placemark>
				<name>Discovery Green *
</name>
				<styleUrl>#icon-959-4186F0-nodesc</styleUrl>
				<Point>
					<coordinates>-95.3606125,29.754279,0.0</coordinates>
				</Point>
			</Placemark>
			<Placemark>
				<name>Discovery Green *
</name>
				<styleUrl>#icon-959-4186F0-nodesc</styleUrl>
				<Point>
					<coordinates>-95.3610685,29.7536363,0.0</coordinates>
				</Point>
			</Placemark>
			<Placemark>
				<name>(unknown)</name>
				<styleUrl>#icon-959-4186F0-nodesc</styleUrl>
				<Point>
					<coordinates>-95.360148,29.75484,0.0</coordinates>
				</Point>
			</Placemark>
			<Placemark>
				<name>Embassy Suites Houston-Downtown *
</name>
				<styleUrl>#icon-959-4186F0-nodesc</styleUrl>
				<Point>
					<coordinates>-95.3615519,29.7529356,0.0</coordinates>
				</Point>
			</Placemark>